City_ID,City,Lat,Lng,Max Temp,Humidity,Cloudiness,Wind Speed,Country,Date
0,cape town,-33.9258,18.4232,22.99,89,75,6.17,ZA,1675743815
1,vargashi,55.3556,65.8467,-17.21,99,95,2.03,RU,1675743815
2,naze,28.3667,129.4833,21.51,78,48,8.03,JP,1675743816
3,atuona,-9.8,-139.0333,25.84,81,28,7.28,PF,1675743816
4,tagusao,9.1924,117.8141,27.6,77,47,2.88,PH,1675743816
5,mahebourg,-20.4081,57.7,27.92,78,75,4.12,MU,1675743817
6,saldanha,-33.0117,17.9442,18.47,95,99,6.5,ZA,1675743817
7,baghdad,33.3406,44.4009,10.95,66,100,3.6,IQ,1675743626
8,catamarca,-28.4696,-65.7852,28.76,40,0,0.89,AR,1675743660
9,atherton,53.5237,-2.4935,4.12,87,99,1.75,GB,1675743819
10,avarua,-21.2078,-159.775,28.03,78,20,4.12,CK,1675743819
11,pangnirtung,66.1451,-65.7125,-36.98,91,78,2.14,CA,1675743729
12,vaini,-21.2,-175.2,27.09,89,75,3.6,TO,1675743820
13,mataura,-46.1927,168.8643,15.27,84,87,4.62,NZ,1675743822
14,punta arenas,-53.15,-70.9167,11.06,87,100,2.57,CL,1675743823
15,nishihara,26.1842,127.7558,21.81,83,75,4.63,JP,1675743733
16,bluff,-46.6,168.3333,15.45,68,63,13.29,NZ,1675743823
17,olafsvik,64.8945,-23.7142,0.41,65,79,16.85,IS,1675743823
18,gamba,-2.65,10.0,25.26,87,84,2.36,GA,1675743824
19,atar,20.5169,-13.0499,14.37,31,0,4.53,MR,1675743550
20,dwarka,22.2394,68.9678,21.95,70,3,2.84,IN,1675743824
21,hobart,-42.8794,147.3294,20.15,55,0,9.77,AU,1675743758
22,grindavik,63.8424,-22.4338,1.26,64,75,12.86,IS,1675743825
23,busselton,-33.65,115.3333,26.57,48,40,2.01,AU,1675743825
24,gorontalo,0.5412,123.0595,28.88,68,98,1.72,ID,1675743825
25,leningradskiy,69.3833,178.4167,-30.57,97,100,4.08,RU,1675743826
26,ust-nera,64.5667,143.2,-33.96,98,100,0.85,RU,1675743826
27,adrar,20.5022,-10.0711,14.47,26,7,4.38,MR,1675743826
28,khatanga,71.9667,102.5,-41.13,100,84,0.63,RU,1675743827
29,albany,42.6001,-73.9662,-2.98,67,52,2.17,US,1675743804
30,snihurivka,47.0758,32.8052,-3.82,79,99,6.86,UA,1675743827
31,lompoc,34.6391,-120.4579,11.4,62,0,8.75,US,1675743827
32,pevek,69.7008,170.3133,-33.41,99,100,0.77,RU,1675743828
33,marsa matruh,31.3525,27.2453,8.11,87,75,6.17,EG,1675743828
34,chuy,-33.6971,-53.4616,19.72,81,2,1.61,UY,1675743828
35,birao,10.2849,22.7882,22.11,12,42,4.24,CF,1675743597
36,victoria,22.2855,114.1577,24.42,79,41,1.34,HK,1675743828
37,souillac,-20.5167,57.5167,27.21,78,75,4.12,MU,1675743829
38,barrow,71.2906,-156.7887,-24.99,84,100,2.57,US,1675743550
39,tiksi,71.6872,128.8694,-32.08,100,100,1.39,RU,1675743829
40,tasiilaq,65.6145,-37.6368,-15.91,96,100,2.93,GL,1675743829
41,paita,-5.0892,-81.1144,24.04,80,26,2.79,PE,1675743830
42,panorama,40.5878,23.0315,-0.73,51,20,5.14,GR,1675743830
43,puerto del rosario,28.5004,-13.8627,13.86,77,0,4.12,ES,1675743830
44,porto walter,-8.2686,-72.7439,21.08,98,94,0.72,BR,1675743831
45,bubaque,11.2833,-15.8333,24.29,49,2,7.34,GW,1675743569
46,severo-kurilsk,50.6789,156.125,-3.12,70,96,5.49,RU,1675743831
47,sobolevo,54.4299,31.8996,-9.25,98,90,2.37,RU,1675743705
48,udachnyy,66.4167,112.4,-34.2,73,100,1.05,RU,1675743831
49,hermanus,-34.4187,19.2345,21.56,93,96,2.21,ZA,1675743832
50,vao,-22.6667,167.4833,26.05,68,17,5.63,NC,1675743832
51,ushuaia,-54.8,-68.3,7.81,87,40,9.26,AR,1675743832
52,lebu,-37.6167,-73.65,14.13,85,0,7.66,CL,1675743833
53,coos bay,43.3665,-124.2179,6.66,99,0,3.09,US,1675743669
54,cabo san lucas,22.8909,-109.9124,20.34,64,43,3.79,MX,1675743720
55,kingston,17.997,-76.7936,26.53,79,20,1.03,JM,1675743833
56,new norfolk,-42.7826,147.0587,19.95,32,1,1.34,AU,1675743834
57,puerto ayora,-0.7393,-90.3518,25.86,91,10,4.02,EC,1675743834
58,vila do maio,15.1333,-23.2167,20.44,65,50,11.19,CV,1675743834
59,lata,40.1629,-8.3327,4.64,72,0,3.08,PT,1675743835
60,zhangye,38.9342,100.4517,1.46,27,0,6.19,CN,1675743835
61,chapais,49.7834,-74.8492,-18.12,90,47,2.92,CA,1675743835
62,nikolskoye,59.7035,30.7861,-3.06,98,90,1.37,RU,1675743835
63,torbay,47.6666,-52.7314,-1.9,94,100,6.17,CA,1675743836
64,upernavik,72.7868,-56.1549,-22.53,94,100,2.3,GL,1675743836
65,sorong,-0.8833,131.25,27.38,75,99,2.51,ID,1675743836
66,faya,18.3851,42.4509,8.29,61,56,1.85,SA,1675743606
67,hamilton,39.1834,-84.5333,5.42,65,100,5.66,US,1675743693
68,nuuk,64.1835,-51.7216,-18.67,95,98,2.65,GL,1675743837
69,port elizabeth,-33.918,25.5701,22.4,93,20,9.77,ZA,1675743837
70,quatre cocos,-20.2078,57.7625,27.83,77,46,7.12,MU,1675743838
71,hilo,19.7297,-155.09,23.49,93,100,2.06,US,1675743838
72,tuktoyaktuk,69.4541,-133.0374,-41.0,66,100,1.54,CA,1675743833
73,abasolo,20.45,-101.5167,13.53,22,0,1.55,MX,1675743839
74,santa helena,-2.2311,-45.3,22.54,99,100,0.79,BR,1675743839
75,bambous virieux,-20.3428,57.7575,27.9,78,75,4.12,MU,1675743840
76,skibbereen,51.55,-9.2667,9.5,88,100,3.71,IE,1675743840
77,kapaa,22.0752,-159.319,25.99,86,75,7.2,US,1675743701
78,cortez,37.3489,-108.5859,-2.39,61,0,0.0,US,1675743840
79,kumphawapi,17.1087,103.0149,32.72,77,5,2.24,TH,1675743841
80,rikitea,-23.1203,-134.9692,26.49,70,24,4.17,PF,1675743841
81,bilma,18.6853,12.9164,15.47,25,55,3.48,NE,1675743842
82,russell,32.3502,-85.1999,11.57,87,0,0.0,US,1675743842
83,sao joao da barra,-21.6403,-41.0511,23.88,93,100,2.43,BR,1675743843
84,lunel,43.6778,4.1361,5.53,65,100,2.06,FR,1675743843
85,georgetown,5.4112,100.3354,29.96,74,20,3.09,MY,1675743839
86,castro,-24.7911,-50.0119,17.8,76,98,1.41,BR,1675743844
87,yuanping,38.7153,112.7575,4.34,29,0,0.8,CN,1675743845
88,estevan,49.1334,-102.9842,-2.81,86,0,5.14,CA,1675743846
89,alice springs,-23.7,133.8833,33.75,40,30,4.12,AU,1675743846
90,jamestown,42.097,-79.2353,-1.1,89,100,3.6,US,1675743786
91,vanimo,-2.6741,141.3028,26.91,90,100,4.73,PG,1675743847
92,fairbanks,64.8378,-147.7164,-16.4,82,0,0.0,US,1675743637
93,port macquarie,-31.4333,152.9167,27.16,62,17,5.38,AU,1675743849
94,namibe,-15.1961,12.1522,20.91,81,97,1.86,AO,1675743850
95,iquitos,-3.7481,-73.2472,23.02,94,75,0.51,PE,1675743850
96,bucerias,20.75,-105.3333,21.66,88,0,0.0,MX,1675743645
97,saint-philippe,-21.3585,55.7679,28.77,85,88,5.67,RE,1675743851
98,kaitangata,-46.2817,169.8464,12.66,88,100,5.55,NZ,1675743852
99,muroto,33.2833,134.15,12.38,65,100,5.5,JP,1675743853
100,tuy hoa,13.0833,109.3,26.23,77,96,2.22,VN,1675743853
101,la ronge,55.1001,-105.2842,-14.86,85,40,0.51,CA,1675743854
102,los llanos de aridane,28.6585,-17.9182,13.86,67,0,4.12,ES,1675743854
103,dikson,73.5069,80.5464,-33.07,99,75,1.81,RU,1675743855
104,te anau,-45.4167,167.7167,13.32,79,43,3.96,NZ,1675743856
105,bengkulu,-3.8004,102.2655,28.55,64,90,4.31,ID,1675743715
106,ribeira grande,38.5167,-28.7,13.76,64,92,7.6,PT,1675743856
107,qaanaaq,77.484,-69.3632,-28.17,94,99,1.75,GL,1675743857
108,basco,20.4487,121.9702,25.31,80,54,5.44,PH,1675743857
109,xai-xai,-25.0519,33.6442,23.32,91,76,2.75,MZ,1675743858
110,puksoozero,62.5903,40.6066,-12.68,96,99,3.25,RU,1675743858
111,palu,-0.8917,119.8707,31.05,61,82,2.01,ID,1675743858
112,richards bay,-28.783,32.0377,22.16,94,10,1.77,ZA,1675743859
113,biltine,14.5333,20.9167,20.04,18,22,6.14,TD,1675743859
114,stryn,61.9045,6.7226,8.49,94,100,3.81,NO,1675743860
115,roblin,51.23,-101.3565,-8.38,89,23,5.39,CA,1675743860
116,barra do garcas,-15.89,-52.2567,22.84,93,100,1.51,BR,1675743861
117,pala,9.3642,14.9046,21.63,19,75,3.36,TD,1675743861
118,san cristobal,7.7669,-72.225,22.1,77,64,0.64,VE,1675743861
119,grand gaube,-20.0064,57.6608,27.99,75,14,3.58,MU,1675743862
120,mar del plata,-38.0023,-57.5575,20.61,76,0,8.49,AR,1675743862
121,kulhudhuffushi,6.6221,73.07,27.07,74,95,4.57,MV,1675743862
122,tobol,52.6844,62.5794,-17.47,98,90,1.61,KZ,1675743856
123,rio cuarto,-33.1307,-64.3499,22.87,53,0,2.57,AR,1675743863
124,tuatapere,-46.1333,167.6833,14.57,70,59,5.97,NZ,1675743863
125,hobe sound,27.0595,-80.1364,21.64,72,0,2.57,US,1675743864
126,touros,-5.1989,-35.4608,26.21,74,39,5.35,BR,1675743864
127,mariestad,58.7097,13.8237,1.32,99,92,6.14,SE,1675743865
128,aasiaat,68.7098,-52.8699,-19.46,92,100,1.91,GL,1675743865
129,bredasdorp,-34.5322,20.0403,19.45,96,82,1.41,ZA,1675743866
130,kodiak,57.79,-152.4072,0.73,75,75,6.69,US,1675743866
131,acarau,-2.8856,-40.12,24.91,85,44,3.05,BR,1675743867
132,norman wells,65.282,-126.8329,-23.98,77,100,2.57,CA,1675743868
133,vila franca do campo,37.7167,-25.4333,13.23,89,99,6.76,PT,1675743868
134,santiago del estero,-27.7951,-64.2615,26.46,34,0,2.55,AR,1675743711
135,cap estate,14.0833,-60.95,24.95,76,91,7.76,LC,1675743869
136,arraial do cabo,-22.9661,-42.0278,24.06,92,99,0.47,BR,1675743869
137,bethel,41.3712,-73.414,1.2,61,0,2.06,US,1675743870
138,sao filipe,14.8961,-24.4956,19.9,65,39,7.45,CV,1675743870
139,souris,49.6172,-100.2612,-7.37,83,11,5.47,CA,1675743870
140,thompson,55.7435,-97.8558,-20.91,77,0,2.57,CA,1675743871
141,namatanai,-3.6667,152.4333,29.35,69,91,3.26,PG,1675743871
142,haines junction,60.7522,-137.5108,-7.03,68,100,1.03,CA,1675743871
143,huamachuco,-7.8,-78.0667,10.88,91,98,1.18,PE,1675743872
144,vigrestad,58.5667,5.7,5.7,90,91,4.7,NO,1675743872
145,san quintin,30.4833,-115.95,13.58,72,0,1.84,MX,1675743872
146,seoul,37.5683,126.9778,6.78,55,75,3.6,KR,1675743838
147,talnakh,69.4865,88.3972,-23.22,97,99,2.81,RU,1675743873
148,harper,4.375,-7.7169,25.69,85,89,2.53,LR,1675743873
149,lazaro cardenas,17.9583,-102.2,23.05,82,9,0.68,MX,1675743613
150,college,64.8569,-147.8028,-16.41,81,75,0.0,US,1675743874
151,east london,-33.0153,27.9116,22.52,88,0,3.6,ZA,1675743874
152,plettenberg bay,-34.0527,23.3716,20.99,95,80,2.37,ZA,1675743874
153,iqaluit,63.7506,-68.5145,-35.15,73,0,0.0,CA,1675743875
154,the valley,18.217,-63.0578,25.05,77,0,8.91,AI,1675743601
155,xam nua,20.4197,104.0439,27.31,36,6,2.43,LA,1675743875
156,mantua,45.1667,10.7833,-0.37,71,1,1.34,IT,1675743875
157,vardo,70.3705,31.1107,1.99,87,40,12.86,NO,1675743876
158,almaznyy,48.0448,40.045,-10.34,89,100,6.99,RU,1675743876
159,piney green,34.716,-77.3202,7.73,85,0,2.06,US,1675743876
160,vila velha,-20.3297,-40.2925,25.97,89,0,1.54,BR,1675743877
161,maniitsoq,65.4167,-52.9,-15.09,89,100,1.3,GL,1675743877
162,carnarvon,-24.8667,113.6333,28.86,49,0,7.62,AU,1675743877
163,kedrovyy,56.1667,91.8167,-19.77,92,95,1.93,RU,1675743878
164,majene,-3.5403,118.9707,30.88,58,100,3.82,ID,1675743752
165,ararat,39.8317,44.7049,3.19,86,99,3.71,AM,1675743878
166,caravelas,-17.7125,-39.2481,24.74,92,2,3.1,BR,1675743878
167,joao pinheiro,-17.7425,-46.1725,20.73,83,85,1.83,BR,1675743590
168,sibu,2.3,111.8167,28.17,78,40,0.0,MY,1675743781
169,rexburg,43.826,-111.7897,-1.99,86,100,5.14,US,1675743879
170,egvekinot,66.3167,-179.1667,-27.93,89,100,3.67,RU,1675743765
171,rosarito,32.3333,-117.0333,13.53,58,0,3.38,MX,1675743880
172,chokurdakh,70.6333,147.9167,-36.75,100,95,1.51,RU,1675743880
173,lasa,46.6166,10.7002,-1.51,90,72,0.29,IT,1675743880
174,valparaiso,-33.0393,-71.6273,15.8,94,100,1.03,CL,1675743752
175,keuruu,62.2667,24.7,-2.89,90,100,2.89,FI,1675743880
176,saskylakh,71.9167,114.0833,-38.25,100,100,0.79,RU,1675743881
177,borba,-4.3878,-59.5939,22.44,99,93,0.83,BR,1675743881
178,waldkirch,48.0959,7.9637,0.33,67,40,3.74,DE,1675743805
179,cidreira,-30.1811,-50.2056,22.81,78,0,4.15,BR,1675743882
180,praia da vitoria,38.7333,-27.0667,12.64,87,75,10.39,PT,1675743824
181,lavrentiya,65.5833,-171.0,-27.34,91,74,3.07,RU,1675743882
182,yellowknife,62.456,-114.3525,-19.71,77,100,5.66,CA,1675743809
183,lorengau,-2.0226,147.2712,26.22,86,100,3.29,PG,1675743596
184,longyearbyen,78.2186,15.6401,-1.09,69,75,11.83,SJ,1675743882
185,cuervos,32.6314,-114.8556,17.18,23,0,5.25,MX,1675743883
186,linxia,35.6003,103.2064,2.79,35,100,1.32,CN,1675743883
187,cayenne,4.9333,-52.3333,24.02,94,75,1.54,GF,1675743884
188,hastings,50.8552,0.5729,3.62,83,0,3.1,GB,1675743884
189,butaritari,3.0707,172.7902,27.39,80,98,9.59,KI,1675743884
190,hithadhoo,-0.6,73.0833,27.7,66,99,4.08,MV,1675743885
191,vercelli,45.3231,8.4153,2.17,65,88,4.18,IT,1675743885
192,esperance,-33.8667,121.9,23.0,70,0,8.31,AU,1675743885
193,brokopondo,4.75,-55.1667,23.35,92,100,3.65,SR,1675743886
194,ruidoso,33.3317,-105.673,2.64,42,0,2.57,US,1675743778
195,novoagansk,61.9449,76.6625,-14.16,96,100,1.66,RU,1675743886
196,cherskiy,68.75,161.3,-37.0,100,100,1.7,RU,1675743886
197,shingu,33.7333,135.9833,13.17,63,98,2.63,JP,1675743887
198,half moon bay,37.4636,-122.4286,11.59,70,0,4.63,US,1675743887
199,port lincoln,-34.7333,135.8667,22.99,59,0,4.42,AU,1675743887
200,mayo,38.8876,-76.5119,4.52,74,0,2.57,US,1675743888
201,kingman,35.1894,-114.053,10.14,35,0,6.17,US,1675743888
202,el bagre,7.5927,-74.8086,23.69,93,54,0.53,CO,1675743888
203,matara,5.9485,80.5353,26.14,82,100,2.34,LK,1675743888
204,kapenguria,1.2511,35.0895,12.76,41,76,2.5,KE,1675743889
205,morlaix,48.5833,-4.0,2.34,100,6,0.51,FR,1675743889
206,svetlaya,46.5389,138.3297,-6.47,43,7,2.2,RU,1675743890
207,hualmay,-11.0964,-77.6139,22.38,83,81,2.86,PE,1675743890
208,gizo,-8.103,156.8419,28.09,75,100,5.59,SB,1675743890
209,troitsko-pechorsk,62.7084,56.1964,-25.14,100,100,1.2,RU,1675743890
210,krasne,49.9145,24.6134,-7.17,96,100,3.37,UA,1675743891
211,boguchany,58.3814,97.4531,-16.27,98,100,0.47,RU,1675743891
212,kahului,20.8947,-156.47,24.91,75,20,9.77,US,1675743891
213,osorno,-40.5667,-73.15,14.17,77,0,1.03,CL,1675743770
214,sinnamary,5.3833,-52.95,24.15,90,95,5.3,GF,1675743892
215,omsukchan,62.5333,155.8,-33.46,96,96,2.38,RU,1675743892
216,ancud,-41.8697,-73.8203,10.84,91,0,1.41,CL,1675743892
217,gat,31.61,34.7642,12.38,100,100,10.94,IL,1675743893
218,usinsk,65.9939,57.5281,-21.21,100,99,4.96,RU,1675743893
219,mahon,39.8885,4.2658,10.31,93,75,5.66,ES,1675743893
220,tutoia,-2.7619,-42.2744,24.83,89,100,3.83,BR,1675743894
221,san patricio,28.017,-97.5169,21.92,86,84,7.09,US,1675743778
222,darbhanga,26.1667,85.9,19.58,43,0,1.41,IN,1675743894
223,mayya,61.7333,130.2811,-42.38,95,100,1.43,RU,1675743895
224,providencia,28.7167,-111.5833,14.0,56,39,5.65,MX,1675743895
225,hirara,24.8,125.2833,22.15,78,75,3.6,JP,1675743895
226,uribia,11.7139,-72.266,24.88,78,3,6.53,CO,1675743895
227,tara,56.8944,74.371,-17.94,99,96,1.64,RU,1675743896
228,izumo,35.3667,132.7667,11.97,50,75,4.12,JP,1675743896
229,nago,26.5881,127.9761,22.24,80,57,5.75,JP,1675743896
230,kumeny,58.1089,49.9161,-24.4,100,100,1.12,RU,1675743897
231,khani,41.9563,42.9566,-1.24,81,100,0.81,GE,1675743897
232,geraldton,-28.7667,114.6,27.23,54,0,6.69,AU,1675743897
233,ketchikan,55.3422,-131.6461,3.99,87,75,2.06,US,1675743898
234,kologriv,58.8275,44.3178,-10.33,98,100,1.26,RU,1675743898
235,port alfred,-33.5906,26.891,21.77,88,100,3.58,ZA,1675743898
236,kurilsk,45.2333,147.8833,-6.16,56,99,5.66,RU,1675743899
237,bayan,46.0833,127.4,-10.34,75,15,3.3,CN,1675743899
238,neiafu,-18.65,-173.9833,24.38,94,75,1.03,TO,1675743899
239,shellbrook,53.2168,-106.4011,-6.43,94,80,2.05,CA,1675743847
240,gao,16.6362,1.637,23.54,15,100,5.57,ML,1675743900
241,hami,42.8,93.45,1.2,45,100,0.95,CN,1675743900
242,chalmette,29.9427,-89.9634,17.22,81,40,5.14,US,1675743900
243,doraha,30.8167,76.0167,18.31,59,2,3.67,IN,1675743900
244,clyde river,70.4692,-68.5914,-32.87,68,100,1.54,CA,1675743901
245,ilulissat,69.2167,-51.1,-18.99,78,100,2.57,GL,1675743901
246,murgab,37.4966,61.9714,6.93,61,0,7.2,TM,1675743901
247,barstow,34.8986,-117.0228,11.55,30,0,1.95,US,1675743902
248,ngunguru,-35.6167,174.5,22.06,64,12,1.6,NZ,1675743903
249,salinas,36.6777,-121.6555,10.28,78,0,2.06,US,1675743847
250,lang son,21.8333,106.7333,19.29,93,100,1.08,VN,1675743903
251,konyshevka,51.8418,35.2941,-10.13,96,43,2.48,RU,1675743905
252,swan river,52.1058,-101.2676,-9.06,67,89,2.57,CA,1675743906
253,chingirlau,51.095,54.0814,-19.37,99,30,2.45,KZ,1675743906
254,mataram,-8.5833,116.1167,30.45,68,99,3.37,ID,1675743907
255,bitkine,11.9801,18.2138,19.21,19,7,3.06,TD,1675743908
256,assiniboia,49.6334,-105.9845,-3.1,74,11,6.17,CA,1675743908
257,columbus,39.9612,-82.9988,1.29,83,75,3.6,US,1675743714
258,caceres,39.522,-6.3748,3.93,83,0,5.85,ES,1675743910
259,waingapu,-9.6567,120.2641,29.35,70,71,6.3,ID,1675743911
260,nyurba,63.2842,118.3319,-34.58,96,98,0.21,RU,1675743912
261,blagoveshchensk,50.2667,127.5333,-17.55,50,0,3.0,RU,1675743912
262,doka,13.5167,35.7667,21.16,27,77,4.48,SD,1675743913
263,okoneshnikovo,54.8377,75.0834,-19.71,100,98,2.49,RU,1675743685
264,kemijarvi,66.7131,27.4306,0.51,98,100,4.52,FI,1675743914
265,voh,-20.9667,164.7,29.88,72,100,0.64,NC,1675743914
266,belmonte,-15.8631,-38.8828,25.03,90,0,3.58,BR,1675743915
267,provideniya,64.3833,-173.3,-19.94,59,40,4.0,RU,1675743916
268,mittagong,-34.45,150.45,23.3,70,79,3.2,AU,1675743916
269,cabedelo,-6.9811,-34.8339,23.37,68,68,4.66,BR,1675743917
270,ponta do sol,32.6667,-17.1,14.45,61,33,3.79,PT,1675743756
271,sitka,57.0531,-135.33,1.94,80,40,3.09,US,1675743917
272,kez,57.8979,53.7152,-23.51,100,97,1.39,RU,1675743918
273,candido de abreu,-24.5669,-51.3333,18.13,72,87,0.28,BR,1675743918
274,elmira,42.0898,-76.8077,-1.03,82,100,2.57,US,1675743637
275,ariquemes,-9.9133,-63.0408,22.07,98,99,0.63,BR,1675743919
276,limpapa,7.1197,121.9106,28.63,79,97,1.01,PH,1675743920
277,taksimo,56.3444,114.8794,-12.98,71,100,1.53,RU,1675743920
278,lakes entrance,-37.8811,147.981,21.76,60,9,4.5,AU,1675743921
279,leh,34.1667,77.5833,-13.99,81,86,0.33,IN,1675743922
280,kendari,-3.945,122.4989,31.66,57,90,1.68,ID,1675743922
281,lichinga,-13.3128,35.2406,17.05,94,75,2.57,MZ,1675743923
282,kjollefjord,70.9457,27.3465,5.03,81,0,11.32,NO,1675743923
283,faanui,-16.4833,-151.75,27.41,76,5,6.51,PF,1675743924
284,orissaare,58.5592,23.0826,-0.03,81,88,3.18,EE,1675743924
285,mareeba,-17.0,145.4333,30.82,64,100,1.08,AU,1675743924
286,airai,-8.9266,125.4092,23.06,60,61,2.23,TL,1675743925
287,panguipulli,-39.6333,-72.3333,12.11,60,1,1.03,CL,1675743926
288,rayagada,19.1667,83.4167,27.74,26,62,0.66,IN,1675743926
289,isangel,-19.55,169.2667,28.2,76,100,0.94,VU,1675743927
290,todos santos,23.45,-110.2167,17.39,90,33,1.77,MX,1675743927
291,netarhat,23.4833,84.2667,22.31,21,0,1.41,IN,1675743928
292,mancio lima,-7.6142,-72.8958,21.06,99,89,0.28,BR,1675743718
293,port moresby,-9.4431,147.1797,25.68,89,100,5.14,PG,1675743928
294,landeck,47.1301,10.5636,-2.59,88,13,3.12,AT,1675743929
295,ha giang,22.8333,104.9833,21.84,93,99,1.83,VN,1675743929
296,asau,46.4333,26.4,-5.4,88,79,2.03,RO,1675743929
297,mehamn,71.0357,27.8492,4.95,81,0,11.32,NO,1675743930
298,meulaboh,4.1363,96.1285,28.23,70,66,1.12,ID,1675743930
299,aksarka,66.5606,67.7975,-26.95,100,74,2.56,RU,1675743737
300,ambulu,-8.345,113.6058,28.92,71,99,4.06,ID,1675743931
301,angoche,-16.2325,39.9086,24.85,90,97,3.3,MZ,1675743931
302,kruisfontein,-34.0033,24.7314,20.49,96,36,4.08,ZA,1675743931
303,daru,-9.0763,143.2092,25.95,86,100,4.92,PG,1675743932
304,pisco,-13.7,-76.2167,23.03,94,20,2.57,PE,1675743932
305,aguimes,27.9054,-15.4461,13.35,72,75,4.12,ES,1675743932
306,bandarbeyla,9.4942,50.8122,23.72,75,75,3.39,SO,1675743933
307,quthing,-30.4,27.7003,19.11,61,98,0.3,LS,1675743933
308,alpena,45.0617,-83.4327,-2.16,85,0,5.14,US,1675743934
309,roccastrada,43.0099,11.1665,1.06,68,51,5.27,IT,1675743934
310,padang,-0.9492,100.3543,31.03,61,54,2.31,ID,1675743934
311,sechura,-5.5569,-80.8222,25.1,69,76,4.11,PE,1675743934
312,mzimba,-11.9,33.6,16.42,99,100,2.88,MW,1675743935
313,evensk,61.95,159.2333,-26.43,78,56,3.51,RU,1675743935
314,bathsheba,13.2167,-59.5167,26.34,73,20,6.69,BB,1675743935
315,klaksvik,62.2266,-6.589,6.51,61,23,12.61,FO,1675743936
316,poum,-20.2333,164.0167,27.54,81,100,5.56,NC,1675743936
317,bolkhov,53.4433,36.0044,-11.42,97,98,2.27,RU,1675743936
318,luderitz,-26.6481,15.1594,17.81,88,13,6.13,NA,1675743937
319,konstantinovka,49.6167,127.9833,-16.12,90,100,2.27,RU,1675743881
320,nanortalik,60.1432,-45.2371,-15.64,85,100,4.92,GL,1675743937
321,broken hill,-31.95,141.4333,31.02,17,0,5.77,AU,1675743937
322,nova gradiska,45.255,17.3831,-4.06,67,1,0.57,HR,1675743938
323,ixtapa,20.7,-105.2,21.24,88,0,0.0,MX,1675743938
324,vengerovo,55.6848,76.7471,-13.26,96,97,2.48,RU,1675743938
325,shelburne,44.0787,-80.2041,-6.34,92,95,4.85,CA,1675743939
326,dayong,25.0209,118.2898,19.93,82,96,1.29,CN,1675743939
327,port blair,11.6667,92.75,29.02,74,75,4.63,IN,1675743820
328,benjamin constant,-4.3831,-70.0311,23.07,99,91,0.49,BR,1675743940
329,fontenay-le-comte,46.5833,-1.0,0.8,74,1,5.64,FR,1675743940
330,lodja,-3.4833,23.4333,19.49,97,94,1.22,CD,1675743940
331,codrington,-38.2667,141.9667,18.79,59,29,5.54,AU,1675743941
332,huanuco,-9.9329,-76.2415,17.08,93,94,1.03,PE,1675743941
333,aviles,43.5547,-5.9248,5.66,75,0,2.57,ES,1675743941
334,butterworth,5.3991,100.3638,30.02,74,20,3.09,MY,1675743942
335,kholodnyy,62.7167,147.95,-31.34,94,97,1.2,RU,1675743942
336,russkoye,45.0167,34.8,-5.82,95,100,6.21,UA,1675743943
337,walvis bay,-22.9575,14.5053,18.94,88,100,2.06,NA,1675743944
338,cedar city,37.6775,-113.0619,-4.46,80,0,2.57,US,1675743944
339,xining,36.6167,101.7667,-0.37,31,100,0.38,CN,1675743944
340,praya,14.9215,-23.5087,20.3,56,75,12.35,CV,1675743945
341,luwuk,-0.9516,122.7875,31.54,61,98,0.83,ID,1675743945
342,qaqortoq,60.7167,-46.0333,-25.71,69,26,4.15,GL,1675743945
343,srandakan,-7.9386,110.2506,27.46,77,100,4.46,ID,1675743946
344,tura,25.5198,90.2201,22.34,33,0,2.13,IN,1675743849
345,mkuranga,-7.118,39.2078,26.55,82,100,2.29,TZ,1675743946
346,lucan,53.3592,-6.4389,7.86,80,100,5.14,IE,1675743946
347,tocopilla,-22.092,-70.1979,22.97,82,25,2.11,CL,1675743947
348,weligama,5.9667,80.4167,26.15,81,100,2.33,LK,1675743947
349,andros town,24.7,-77.7667,22.98,71,10,7.95,BS,1675743947
350,constitucion,-35.3333,-72.4167,15.65,72,0,3.68,CL,1675743948
351,cotoca,-17.8167,-63.05,23.92,86,69,3.78,BO,1675743948
352,rumphi,-11.0186,33.8575,17.33,98,100,0.62,MW,1675743948
353,lensk,60.7253,114.9278,-23.99,94,100,0.87,RU,1675743948
354,sorland,67.667,12.6934,7.92,88,100,20.88,NO,1675743949
355,sambava,-14.2667,50.1667,24.71,86,85,2.92,MG,1675743949
356,veraval,20.9,70.3667,22.75,62,4,3.7,IN,1675743949
357,puerto padre,21.195,-76.6028,24.13,80,0,4.56,CU,1675743950
358,kaeo,-35.1,173.7833,24.62,81,20,1.49,NZ,1675743950
359,fort nelson,58.8053,-122.7002,-11.14,85,75,2.57,CA,1675743950
360,vanavara,60.34,102.2797,-22.21,100,100,1.1,RU,1675743951
361,stralsund,54.3091,13.0818,-2.77,85,10,3.48,DE,1675743860
362,subate,56.0062,25.9076,-7.41,99,68,1.15,LV,1675743951
363,rondonopolis,-16.4708,-54.6356,23.21,90,100,0.33,BR,1675743951
364,avera,33.194,-82.5271,5.73,57,23,2.13,US,1675743952
365,noumea,-22.2763,166.4572,24.99,71,76,5.38,NC,1675743870
366,amahai,-3.3333,128.9167,28.62,72,89,1.93,ID,1675743952
367,itarema,-2.9248,-39.9167,25.09,84,46,3.13,BR,1675743952
368,cockburn town,21.4612,-71.1419,25.59,76,2,6.89,TC,1675743953
369,hambantota,6.1241,81.1185,28.19,89,20,4.12,LK,1675743953
370,rawson,-43.3002,-65.1023,20.77,61,76,4.57,AR,1675743891
371,pelham,33.2857,-86.81,12.85,68,0,2.06,US,1675743953
372,yeppoon,-23.1333,150.7333,30.88,68,70,9.09,AU,1675743954
373,argelia,2.2556,-77.2488,17.57,97,100,0.25,CO,1675743954
374,lenexa,38.9536,-94.7336,9.94,66,0,6.17,US,1675743954
375,vyazma,55.2104,34.2951,-14.17,99,78,1.93,RU,1675743955
376,deputatskiy,69.3,139.9,-35.84,98,100,1.83,RU,1675743955
377,cap-aux-meules,47.3821,-61.8597,-6.99,93,100,7.72,CA,1675743956
378,flinders,-34.5833,150.8552,22.36,78,68,2.01,AU,1675743956
379,honningsvag,70.9821,25.9704,4.86,81,100,7.2,NO,1675743957
380,kambam,5.2505,96.8629,27.7,70,36,1.67,ID,1675743957
381,bagua grande,-5.7561,-78.4411,22.77,86,83,1.68,PE,1675743957
382,marathon,44.9,-89.7668,0.86,91,100,4.12,US,1675743958
383,launceston,-41.45,147.1667,25.9,31,5,4.12,AU,1675743958
384,jaru,-10.4389,-62.4664,22.57,97,100,0.92,BR,1675743958
385,erenhot,43.6475,111.9767,-6.65,73,83,2.77,CN,1675743960
386,maracaibo,10.6317,-71.6406,25.78,75,4,5.61,VE,1675743960
387,nouakchott,18.0858,-15.9785,15.96,37,59,7.05,MR,1675743864
388,eagle pass,28.7091,-100.4995,19.47,69,50,5.13,US,1675743961
389,hammerfest,70.6634,23.6821,6.25,81,20,7.72,NO,1675743962
390,suntar,62.1444,117.6319,-32.66,96,99,0.47,RU,1675743963
391,malanje,-9.5402,16.341,16.26,98,92,1.32,AO,1675743963
392,jacareacanga,-6.2222,-57.7528,22.75,98,100,0.21,BR,1675743964
393,shebalino,51.2917,85.6772,-5.43,83,100,2.38,RU,1675743964
394,eyrarbakki,63.863,-21.1481,-1.97,58,96,16.43,IS,1675743965
395,inhambane,-23.865,35.3833,23.99,94,75,5.66,MZ,1675743966
396,sebinkarahisar,40.2883,38.4236,-6.12,92,100,2.55,TR,1675743966
397,khandyga,62.6667,135.6,-35.18,93,100,0.09,RU,1675743967
398,roebourne,-20.7833,117.1333,35.24,38,6,4.95,AU,1675743967
399,pueblo,38.2545,-104.6091,2.26,55,0,0.0,US,1675743955
400,guerrero negro,27.9769,-114.0611,16.06,35,54,5.33,MX,1675743968
401,coaraci,-14.6408,-39.5511,21.62,94,42,0.69,BR,1675743970
402,dzhebariki-khaya,62.2167,135.8,-34.3,93,100,0.32,RU,1675743970
403,beloha,-25.1667,45.05,23.46,83,99,4.08,MG,1675743971
404,itoman,26.1247,127.6694,22.21,83,75,4.63,JP,1675743971
405,marsh harbour,26.5412,-77.0636,21.48,63,5,5.83,BS,1675743972
406,saint george,37.1041,-113.5841,7.33,52,0,6.69,US,1675743972
407,freeport,40.6576,-73.5832,2.99,70,0,7.2,US,1675743973
408,alihe,50.5667,123.7167,-12.43,70,21,1.15,CN,1675743974
409,umm lajj,25.0213,37.2685,18.5,52,100,5.59,SA,1675743974
410,port hardy,50.6996,-127.4199,7.1,100,100,0.0,CA,1675743975
411,port hedland,-20.3167,118.5667,37.03,39,66,4.63,AU,1675743975
412,beringovskiy,63.05,179.3167,-25.57,92,100,3.66,RU,1675743976
413,puerto escondido,15.85,-97.0667,25.46,73,0,0.0,MX,1675743977
414,puerto madryn,-42.7692,-65.0385,21.26,60,67,9.11,AR,1675743978
415,auki,-8.7676,160.7034,29.83,67,95,3.47,SB,1675743978
416,panzhihua,26.5851,101.7128,18.83,31,0,0.68,CN,1675743979
417,pacifica,37.6138,-122.4869,11.96,79,40,4.63,US,1675743889
418,placido de castro,-10.3353,-67.1856,21.76,98,98,0.93,BR,1675743980
419,hiranagar,32.45,75.2667,17.08,37,3,0.83,IN,1675743980
420,santana do livramento,-30.8908,-55.5328,21.53,54,27,1.7,BR,1675743981
421,keti bandar,24.1447,67.4497,22.9,55,3,2.04,PK,1675743981
422,dali,25.7,100.1833,14.93,26,1,2.69,CN,1675743982
423,san ramon de la nueva oran,-23.1322,-64.326,26.35,67,98,1.74,AR,1675743982
424,angren,41.0167,70.1436,2.77,59,2,3.57,UZ,1675743982
425,houma,29.5958,-90.7195,16.11,88,0,3.09,US,1675743983
426,saint-augustin,51.226,-58.6502,-24.83,86,7,3.53,CA,1675743983
427,chibombo,-14.6569,28.0706,17.46,98,99,1.11,ZM,1675743984
428,hovd,48.0056,91.6419,-14.2,82,22,1.07,MN,1675743984
429,jinchang,38.4953,102.1739,3.56,32,0,3.25,CN,1675743985
430,gold coast,-28.0,153.4333,30.5,63,98,7.72,AU,1675743869
431,qasigiannguit,68.8193,-51.1922,-18.86,98,100,2.49,GL,1675743985
432,gornyy,55.1153,83.9059,-10.27,93,98,4.98,RU,1675743986
433,fortuna,40.5982,-124.1573,6.51,91,100,0.0,US,1675743986
434,bonnyville,54.2668,-110.735,1.62,88,98,3.34,CA,1675743987
435,privolzhskiy,51.4,46.0333,-16.06,95,33,3.65,RU,1675743987
436,kununurra,-15.7667,128.7333,35.99,36,62,2.57,AU,1675743731
437,huarmey,-10.0681,-78.1522,22.06,85,46,2.6,PE,1675743988
438,dingle,10.9995,122.6711,28.47,71,98,5.67,PH,1675743956
439,kudahuvadhoo,2.6708,72.8944,27.32,70,100,3.36,MV,1675743988
440,palmer,42.1584,-72.3287,0.23,63,0,6.17,US,1675743989
441,komsomolskiy,40.4272,71.7189,3.4,81,5,2.06,UZ,1675743989
442,george,-33.963,22.4617,20.75,100,100,3.09,ZA,1675743918
443,nabire,-3.3667,135.4833,27.52,70,100,0.69,ID,1675743990
444,sharjah,25.3573,55.4033,18.99,94,1,1.54,AE,1675743823
445,el tigre,8.8875,-64.2454,23.06,75,30,6.16,VE,1675743991
446,ust-karsk,52.7011,118.8077,-15.49,86,79,1.19,RU,1675743991
447,hasaki,35.7333,140.8333,15.16,55,59,3.76,JP,1675743750
448,hofn,64.2539,-15.2082,1.65,84,59,18.24,IS,1675743991
449,itupiranga,-5.1347,-49.3267,23.18,97,97,0.44,BR,1675743992
450,slave lake,55.2834,-114.769,1.99,69,75,1.54,CA,1675743992
451,colchester,51.8892,0.9042,3.41,86,1,0.8,GB,1675743993
452,laguna,38.421,-121.4238,11.16,64,0,3.09,US,1675743993
453,ossora,59.2353,163.0719,-22.22,89,100,2.3,RU,1675743993
454,trelew,-43.249,-65.3051,21.14,57,74,2.24,AR,1675743994
455,chaozhou,23.6651,116.6379,19.92,63,19,0.91,CN,1675743994
456,margate,51.3813,1.3862,5.31,82,0,3.12,GB,1675743994
457,maragogi,-9.0122,-35.2225,25.28,72,74,3.29,BR,1675743995
458,carutapera,-1.195,-46.02,23.97,94,97,2.28,BR,1675743995
459,jakar,27.5492,90.7525,6.1,66,95,1.97,BT,1675743995
460,taupo,-38.6833,176.0833,21.69,53,11,5.06,NZ,1675743996
461,jalu,29.0331,21.5482,9.76,57,68,3.71,LY,1675743996
462,karratha,-20.7377,116.8463,35.21,39,7,5.3,AU,1675743997
463,havre-saint-pierre,50.2334,-63.5986,-14.0,77,0,3.6,CA,1675743997
464,limbazi,57.5129,24.7194,-4.98,97,98,0.69,LV,1675743997
465,lokosovo,61.1333,74.8167,-13.37,96,100,2.06,RU,1675743998
466,beruwala,6.4788,79.9828,26.39,80,100,0.31,LK,1675743998
467,salta,-24.7859,-65.4117,20.33,78,0,0.89,AR,1675743998
468,ribas do rio pardo,-20.4431,-53.7592,22.35,91,100,1.73,BR,1675743998
469,jiangkou,25.4872,119.1986,16.76,85,100,3.79,CN,1675743999
470,mizdah,31.4451,12.9801,5.49,79,75,4.06,LY,1675743999
471,asosa,10.0667,34.5333,18.09,32,4,2.67,ET,1675743999
472,katsuura,35.1333,140.3,14.06,54,61,3.17,JP,1675744000
473,kawalu,-7.3817,108.2082,28.93,66,85,0.95,ID,1675744000
474,marapanim,-0.7175,-47.6997,23.05,97,98,1.08,BR,1675744000
475,pedregulho,-20.2569,-47.4767,18.0,94,100,0.57,BR,1675743997
476,pak phanang,8.3511,100.202,31.13,70,12,4.27,TH,1675744001
477,tame,6.461,-71.73,25.46,51,98,2.42,CO,1675744001
478,humaita,-7.5061,-63.0208,22.5,98,100,0.88,BR,1675744002
479,binzhou,37.3667,118.0167,7.74,40,19,1.55,CN,1675744002
480,donskoy,53.9711,38.3363,-10.34,96,82,2.55,RU,1675744002
481,marrakesh,31.6315,-8.0083,9.04,81,75,1.54,MA,1675743815
482,amurzet,47.6967,131.0981,-10.53,79,73,2.83,RU,1675744003
483,port-cartier,50.0334,-66.8654,-14.18,90,7,2.88,CA,1675744003
484,nioki,-2.7167,17.6833,20.35,98,57,1.03,CD,1675744004
485,taltal,-25.4,-70.4833,21.22,82,9,1.01,CL,1675744004
486,kisangani,0.5167,25.2,21.74,79,90,1.42,CD,1675744004
487,niquero,20.0431,-77.5828,23.77,81,13,7.17,CU,1675744005
488,naron,43.5167,-8.1528,6.68,81,0,4.75,ES,1675744005
489,west monroe,32.5185,-92.1476,16.0,69,0,3.09,US,1675744006
490,nome,64.5011,-165.4064,-16.58,71,0,0.0,US,1675744007
491,oxapampa,-10.5775,-75.4017,14.88,97,95,0.9,PE,1675744007
492,ust-maya,60.4167,134.5333,-33.2,90,100,1.15,RU,1675744007
493,oranjemund,-28.55,16.4333,18.19,95,100,4.24,NA,1675743825
494,maun,-19.9833,23.4167,20.06,85,80,0.62,BW,1675744008
495,svetlogorsk,52.6333,29.7333,-5.74,98,93,1.77,BY,1675744008
496,gewane,10.1664,40.6453,21.89,29,85,2.31,ET,1675744009
497,bilibino,68.0546,166.4372,-37.65,100,98,0.56,RU,1675744009
498,centerville,39.6284,-84.1594,3.58,75,0,4.12,US,1675744009
499,chinhoyi,-17.3667,30.2,16.01,90,56,1.84,ZW,1675744010
500,srivardhan,18.0333,73.0167,25.1,41,75,2.44,IN,1675744010
501,makakilo city,21.3469,-158.0858,26.18,64,0,7.2,US,1675744010
502,maceio,-9.6658,-35.7353,22.69,94,20,2.06,BR,1675744011
503,trat,12.5,102.5,32.17,64,99,2.89,TH,1675744011
504,berezovyy,51.6667,135.7,-14.78,71,100,0.67,RU,1675744011
505,jackson,42.4165,-122.8345,3.93,78,0,0.0,US,1675744012
506,kars,40.602,43.095,-1.75,93,75,3.09,TR,1675744012
507,hanzhong,33.0728,107.0303,13.22,42,100,1.66,CN,1675744012
508,sayansk,54.1088,102.1648,-13.86,94,100,0.99,RU,1675744013
509,alofi,-19.0595,-169.9187,29.94,70,40,4.12,NU,1675744013
510,portoferraio,42.8115,10.3146,3.95,59,95,9.64,IT,1675744013
511,harihar,14.5167,75.8,24.97,45,100,1.08,IN,1675744014
512,torbat-e jam,35.244,60.6225,8.03,37,100,2.81,IR,1675744014
513,coffs harbour,-30.3,153.1333,26.98,61,24,5.66,AU,1675744014
514,aklavik,68.2191,-135.0107,-34.4,97,100,1.3,CA,1675744014
515,saijo,33.9167,133.1833,9.71,90,100,1.65,JP,1675744015
516,anantapur,14.6833,77.6,26.4,44,39,2.35,IN,1675743764
517,parrita,9.5201,-84.3225,24.58,72,0,1.68,CR,1675744015
518,nakasongola,1.3089,32.4564,18.57,69,43,1.56,UG,1675744016
519,yumen,40.2833,97.2,-0.24,41,37,7.06,CN,1675743992
520,bayir,37.2687,28.2167,1.29,76,8,5.33,TR,1675744016
521,miles city,46.4083,-105.8406,0.54,80,0,3.6,US,1675744016
522,dicabisagan,17.0818,122.4157,26.77,80,62,2.42,PH,1675744017
523,shimoda,34.6667,138.95,13.2,53,66,4.92,JP,1675744017
524,kuppam,12.75,78.3667,23.8,51,6,1.8,IN,1675744017
525,gayeri,12.6497,0.4931,24.22,17,78,3.75,BF,1675744018
526,tabas,33.5959,56.9244,11.47,38,4,2.71,IR,1675744018
527,sangar,63.9242,127.4739,-40.32,95,89,0.7,RU,1675744018
528,bom jardim,-7.7958,-35.5872,22.36,74,100,2.7,BR,1675744019
529,grahamstown,-33.3042,26.5328,18.31,83,100,2.6,ZA,1675744019
530,romuli,47.5333,24.4333,-9.29,79,84,1.52,RO,1675744019
531,lagoa,39.05,-27.9833,13.03,66,100,9.64,PT,1675743731
532,conde,-7.2597,-34.9075,22.7,94,40,1.54,BR,1675743818
533,mahajanga,-15.7167,46.3167,24.01,94,20,2.57,MG,1675744020
534,nong khai,17.9167,103.0833,33.49,40,1,1.7,TH,1675744020
535,fortuna foothills,32.6578,-114.4119,16.71,28,0,4.63,US,1675744020
536,nicoya,10.1483,-85.452,23.76,76,0,4.83,CR,1675743910
537,pimentel,-6.8367,-79.9342,24.16,69,40,3.6,PE,1675744021
538,waddan,29.1614,16.139,7.46,67,67,3.84,LY,1675744021
539,lanigan,51.8501,-105.0344,-2.06,91,55,3.47,CA,1675744022
540,tortoli,39.9256,9.6572,5.9,81,40,4.12,IT,1675744022
541,ambilobe,-13.2,49.05,23.62,89,83,0.86,MG,1675744023
542,nyrob,60.733,56.7202,-25.36,100,96,0.69,RU,1675744023
543,manzini,-26.25,31.5,19.03,95,6,1.83,SZ,1675744024
544,namangan,40.9983,71.6726,6.25,70,19,1.03,UZ,1675744024
545,mount isa,-20.7333,139.5,30.87,58,40,6.69,AU,1675743982
546,mangan,27.5167,88.5333,15.53,72,85,1.66,IN,1675744025
547,narsaq,60.9167,-46.05,-16.88,63,19,3.8,GL,1675744026
548,cepu,-7.1475,111.5906,28.89,73,100,4.28,ID,1675744026
549,lac-megantic,45.5834,-70.8823,-20.33,100,100,0.96,CA,1675744027
550,north bend,43.4065,-124.2243,6.62,99,0,3.09,US,1675744027
551,mudgee,-32.5943,149.5871,33.14,23,0,2.71,AU,1675744028
552,vostok,46.4856,135.8833,-11.57,77,100,3.93,RU,1675744008
553,itapaci,-14.9508,-49.5494,20.71,91,75,0.69,BR,1675744028
554,prokopyevsk,53.9059,86.719,-6.24,79,100,4.18,RU,1675744029
555,turbat,26.0023,63.044,21.86,14,45,2.02,PK,1675744030
556,yerbogachen,61.2767,108.0108,-25.83,97,89,0.77,RU,1675744030
557,talavera de la reina,39.9635,-4.8308,2.97,83,9,4.05,ES,1675744031
558,naila,50.3167,11.7,-7.09,88,9,1.54,DE,1675744031
559,abnub,27.2696,31.1511,6.12,54,100,2.93,EG,1675744032
560,road town,18.4167,-64.6167,24.05,74,1,8.72,VG,1675743999
561,batagay,67.6333,134.6333,-41.83,96,98,0.76,RU,1675744033
562,yulara,-25.2406,130.9889,35.08,13,0,3.78,AU,1675744033
563,merritt island,28.5392,-80.672,17.78,81,0,2.57,US,1675744033
564,rocha,-34.4833,-54.3333,19.37,97,6,0.66,UY,1675744034
565,kanniyakumari,8.0833,77.5667,26.7,56,95,5.12,IN,1675744034
566,thinadhoo,0.5333,72.9333,27.34,70,99,4.07,MV,1675744035
567,coihaique,-45.5752,-72.0662,12.34,66,0,1.54,CL,1675744036
568,chanderi,24.7167,78.1333,22.41,37,0,4.19,IN,1675744036
569,sheopur,25.6667,76.7,20.94,36,0,2.56,IN,1675744037
570,sibolga,1.7427,98.7792,26.83,73,95,1.09,ID,1675744038
571,kasungu,-13.0333,33.4833,17.54,98,100,2.02,MW,1675744038
572,port hueneme,34.1478,-119.1951,13.21,65,0,2.57,US,1675743956
573,jumla,29.2747,82.1838,8.39,29,2,1.22,NP,1675744039
574,revda,56.801,59.9303,-13.02,98,100,0.87,RU,1675744039
575,bocaiuva,-17.1078,-43.815,21.84,82,96,1.0,BR,1675743891
576,taikang,46.8333,124.4167,-9.19,64,1,3.11,CN,1675744040
577,cap malheureux,-19.9842,57.6142,28.04,75,12,3.58,MU,1675744040
