City_ID,City,Lat,Lng,Max Temp,Humidity,Cloudiness,Wind Speed,Country,Date
0,upernavik,72.7868,-56.1549,-26.76,94,100,6.58,GL,1675661655
1,victoria,22.2855,114.1577,22.76,84,97,3.13,HK,1675661538
2,isangel,-19.55,169.2667,28.98,73,96,2.38,VU,1675661652
3,avarua,-21.2078,-159.775,27.03,83,40,4.12,CK,1675661656
4,sai buri,6.7013,101.6168,28.84,74,100,3.67,TH,1675661657
5,butaritari,3.0707,172.7902,27.09,81,59,8.72,KI,1675661657
6,barcelona,41.3888,2.159,11.04,70,75,5.14,ES,1675661510
7,bengkulu,-3.8004,102.2655,29.48,62,86,5.86,ID,1675661658
8,iskateley,67.6803,53.1512,-19.76,99,47,3.77,RU,1675661658
9,hobart,-42.8794,147.3294,22.92,39,0,7.72,AU,1675661489
10,ushuaia,-54.8,-68.3,5.81,70,75,2.57,AR,1675661506
11,nioro,13.35,-15.75,20.46,17,71,2.9,GM,1675661659
12,port blair,11.6667,92.75,30.02,74,40,3.6,IN,1675661660
13,rikitea,-23.1203,-134.9692,25.94,76,3,5.86,PF,1675661554
14,cape town,-33.9258,18.4232,21.73,85,20,6.17,ZA,1675661369
15,hermanus,-34.4187,19.2345,21.56,87,74,5.65,ZA,1675661660
16,hasaki,35.7333,140.8333,14.56,55,67,2.43,JP,1675661661
17,puerto ayora,-0.7393,-90.3518,26.42,92,25,1.79,EC,1675661661
18,kupang,-10.1667,123.5833,31.32,70,75,5.66,ID,1675661662
19,new norfolk,-42.7826,147.0587,22.72,40,28,4.47,AU,1675661662
20,port alfred,-33.5906,26.891,23.99,92,53,0.45,ZA,1675661662
21,karratha,-20.7377,116.8463,37.8,28,0,7.29,AU,1675661663
22,bambous virieux,-20.3428,57.7575,29.14,70,40,3.6,MU,1675661664
23,quevedo,-1.0333,-79.45,22.6,95,94,1.24,EC,1675661665
24,fuerte olimpo,-21.0415,-57.8738,22.83,73,13,2.01,PY,1675661665
25,barrow,71.2906,-156.7887,-28.99,76,40,0.0,US,1675661666
26,yar-sale,66.8333,70.8333,-27.94,100,96,0.21,RU,1675661667
27,busselton,-33.65,115.3333,27.49,43,0,7.89,AU,1675661667
28,albany,42.6001,-73.9662,3.63,66,100,1.43,US,1675661508
29,punta arenas,-53.15,-70.9167,11.06,62,75,8.75,CL,1675661669
30,hiranagar,32.45,75.2667,21.13,45,87,2.63,IN,1675661670
31,semme,46.1963,1.5007,2.23,92,63,3.78,FR,1675661671
32,hilo,19.7297,-155.09,22.85,90,75,2.24,US,1675661553
33,vila franca do campo,37.7167,-25.4333,15.23,86,95,2.75,PT,1675661672
34,itaueira,-7.6033,-43.0256,23.97,64,97,1.15,BR,1675661673
35,atuona,-9.8,-139.0333,25.98,77,11,7.13,PF,1675661673
36,fairbanks,64.8378,-147.7164,-19.0,81,0,2.06,US,1675661623
37,jackson,42.4165,-122.8345,6.93,82,100,0.45,US,1675661674
38,huarmey,-10.0681,-78.1522,21.92,84,86,2.66,PE,1675661674
39,constitucion,-35.3333,-72.4167,15.59,80,10,2.44,CL,1675661456
40,tiksi,71.6872,128.8694,-30.34,100,100,1.35,RU,1675661674
41,nanning,22.8167,108.3167,13.25,92,100,2.05,CN,1675661675
42,port elizabeth,-33.918,25.5701,23.51,93,40,2.57,ZA,1675661628
43,biak,-0.9131,122.8766,27.73,64,94,2.27,ID,1675661675
44,bokovskaya,49.229,41.8306,-8.94,95,100,3.24,RU,1675661675
45,arlit,18.7369,7.3853,18.77,17,46,3.21,NE,1675661675
46,mokokchung,26.3333,94.5333,20.49,29,0,2.19,IN,1675661676
47,port lincoln,-34.7333,135.8667,21.94,56,2,5.09,AU,1675661676
48,tasiilaq,65.6145,-37.6368,-4.91,92,99,4.94,GL,1675661676
49,buraydah,26.326,43.975,14.25,26,64,6.41,SA,1675661677
50,tuktoyaktuk,69.4541,-133.0374,-42.0,66,0,2.57,CA,1675661677
51,bandarbeyla,9.4942,50.8122,24.92,66,88,6.89,SO,1675661678
52,saint-philippe,-21.3585,55.7679,29.77,75,67,5.48,RE,1675661679
53,esperance,-33.8667,121.9,31.31,39,65,8.8,AU,1675661591
54,bluff,-46.6,168.3333,15.71,76,88,10.51,NZ,1675661682
55,rawson,-43.3002,-65.1023,16.72,63,36,4.94,AR,1675661682
56,naspur,18.8333,79.45,29.62,11,9,1.97,IN,1675661682
57,jadu,31.953,12.0261,5.93,86,60,1.22,LY,1675661683
58,fare,-16.7,-151.0167,27.49,75,82,6.37,PF,1675661683
59,verkhnyaya toyma,62.2349,44.9985,-21.6,100,100,1.52,RU,1675661684
60,broome,42.2506,-75.833,5.56,65,100,4.63,US,1675661684
61,saskylakh,71.9167,114.0833,-41.01,100,97,1.72,RU,1675661684
62,takoradi,4.8845,-1.7554,25.87,91,72,3.12,GH,1675661685
63,zhuhai,22.2769,113.5678,22.84,88,40,1.54,CN,1675661685
64,narsaq,60.9167,-46.05,-12.88,88,88,2.57,GL,1675661685
65,kamaishi,39.2667,141.8833,6.74,60,66,1.28,JP,1675661686
66,kungurtug,50.5994,97.5228,-12.61,88,93,0.67,RU,1675661686
67,yellowknife,62.456,-114.3525,-19.69,77,100,4.63,CA,1675661686
68,san patricio,28.017,-97.5169,18.92,93,0,3.65,US,1675661686
69,shimoda,34.6667,138.95,12.2,43,100,2.46,JP,1675661687
70,jamestown,42.097,-79.2353,3.34,85,100,2.57,US,1675661687
71,bilma,18.6853,12.9164,14.75,20,9,6.36,NE,1675661689
72,dorogobuzh,54.915,33.2972,-9.9,97,100,1.41,RU,1675661689
73,kurchum,48.5722,83.6542,-5.09,93,97,0.98,KZ,1675661690
74,ivanteyevka,55.9711,37.9208,-4.19,100,87,1.44,RU,1675661690
75,kapaa,22.0752,-159.319,24.99,86,100,6.17,US,1675661690
76,kattivakkam,13.2167,80.3167,30.05,61,100,4.46,IN,1675661691
77,pustoshka,56.3355,29.369,-5.08,96,100,3.51,RU,1675661691
78,boende,-0.2167,20.8667,24.18,67,74,1.79,CD,1675661691
79,saint-alexandre,44.2278,4.6214,6.66,78,97,5.64,FR,1675661692
80,mga,59.75,31.0667,-1.76,99,100,1.12,RU,1675661692
81,havre-saint-pierre,50.2334,-63.5986,-15.0,84,75,3.09,CA,1675661692
82,dikson,73.5069,80.5464,-17.93,97,100,1.48,RU,1675661692
83,sibolga,1.7427,98.7792,29.22,59,100,1.72,ID,1675661693
84,nikolskoye,59.7035,30.7861,-1.78,99,100,1.22,RU,1675661693
85,meulaboh,4.1363,96.1285,26.3,76,99,2.86,ID,1675661694
86,lensk,60.7253,114.9278,-27.26,89,62,0.13,RU,1675661695
87,mataura,-46.1927,168.8643,18.37,57,90,3.12,NZ,1675661696
88,shaowu,27.3409,117.4831,15.62,89,99,0.59,CN,1675661696
89,kieta,-6.2167,155.6333,26.68,82,100,1.34,PG,1675661696
90,bredasdorp,-34.5322,20.0403,22.03,80,74,6.62,ZA,1675661697
91,cherskiy,68.75,161.3,-40.49,100,100,2.19,RU,1675661697
92,thompson,55.7435,-97.8558,-11.91,85,100,1.54,CA,1675661697
93,longyearbyen,78.2186,15.6401,-5.09,86,20,5.14,SJ,1675661698
94,pedernales,18.0384,-71.744,24.3,65,3,2.29,DO,1675661699
95,sibu,2.3,111.8167,31.17,70,40,2.06,MY,1675661699
96,tual,-5.6667,132.75,27.05,80,99,8.59,ID,1675661701
97,qaanaaq,77.484,-69.3632,-24.93,96,72,2.28,GL,1675661703
98,khatanga,71.9667,102.5,-36.69,99,51,2.64,RU,1675661704
99,alyangula,-13.8483,136.4192,30.24,53,95,2.01,AU,1675661705
100,vega de alatorre,20.0333,-96.6333,19.92,86,42,1.37,MX,1675661705
101,lagos,6.5833,3.75,26.18,93,87,1.32,NG,1675661623
102,tingi,-11.3,35.0333,20.22,83,99,0.45,TZ,1675661707
103,lorengau,-2.0226,147.2712,28.49,76,83,1.75,PG,1675661709
104,torbay,47.6666,-52.7314,-0.24,91,100,12.35,CA,1675661710
105,east london,-33.0153,27.9116,25.52,78,40,4.63,ZA,1675661711
106,norman wells,65.282,-126.8329,-23.98,70,75,2.06,CA,1675661712
107,umm kaddadah,13.6017,26.6876,19.22,18,49,4.97,SD,1675661712
108,clyde,41.3042,-82.9752,1.5,77,78,4.99,US,1675661713
109,rovaniemi,66.5,25.7167,-9.33,92,0,2.57,FI,1675661714
110,sao felix do xingu,-6.6447,-51.995,20.98,99,83,0.42,BR,1675661714
111,dubbo,-32.25,148.6167,34.07,14,0,2.06,AU,1675661715
112,bethel,41.3712,-73.414,3.52,71,20,0.0,US,1675661715
113,indian head,38.6001,-77.1622,8.59,75,0,4.63,US,1675661716
114,vaini,-21.2,-175.2,28.09,74,20,2.57,TO,1675661716
115,arraial do cabo,-22.9661,-42.0278,23.43,88,47,2.42,BR,1675661717
116,road town,18.4167,-64.6167,24.05,72,2,10.03,VG,1675661428
117,airai,-8.9266,125.4092,20.91,75,89,1.71,TL,1675661718
118,grand bank,47.0999,-55.765,2.0,97,100,13.61,CA,1675661718
119,mattru,7.6244,-11.8332,22.65,86,94,1.04,SL,1675661720
120,deputatskiy,69.3,139.9,-40.58,99,69,2.56,RU,1675661720
121,mkushi,-13.6202,29.3939,17.48,93,100,1.26,ZM,1675661720
122,olkhovka,53.2115,60.6069,-15.55,95,93,3.2,RU,1675661722
123,aklavik,68.2191,-135.0107,-41.76,100,45,0.6,CA,1675661722
124,vao,-22.6667,167.4833,26.35,82,57,7.36,NC,1675661723
125,sioux lookout,50.1001,-91.917,-15.96,85,0,3.6,CA,1675661528
126,nouadhibou,20.931,-17.0347,13.99,51,0,7.72,MR,1675661723
127,padang,-0.9492,100.3543,31.03,62,94,3.11,ID,1675661724
128,riyadh,24.6877,46.7219,18.08,46,11,7.66,SA,1675661480
129,saint anthony,45.0205,-93.218,-7.21,84,0,1.54,US,1675661724
130,bad doberan,54.1071,11.9005,2.28,87,87,4.82,DE,1675661725
131,cabo san lucas,22.8909,-109.9124,20.28,82,77,5.7,MX,1675661508
132,klaksvik,62.2266,-6.589,9.51,91,100,16.78,FO,1675661726
133,puerto palomas,31.7667,-107.6167,14.61,26,8,3.89,MX,1675661727
134,cayenne,4.9333,-52.3333,23.02,100,100,0.0,GF,1675661729
135,saint george,37.1041,-113.5841,5.7,82,40,2.06,US,1675661729
136,huancabamba,-5.2386,-79.4506,14.23,92,59,2.29,PE,1675661730
137,castro,-24.7911,-50.0119,14.97,87,15,1.62,BR,1675661730
138,severnyy-kospashskiy,59.0925,57.8008,-16.33,97,98,0.61,RU,1675661731
139,jalu,29.0331,21.5482,10.67,50,90,5.45,LY,1675661731
140,praya,14.9215,-23.5087,20.3,60,75,10.8,CV,1675661571
141,fort nelson,58.8053,-122.7002,-22.23,84,20,1.54,CA,1675661436
142,puerto carreno,6.189,-67.4859,25.48,61,72,1.59,CO,1675661732
143,ambon,-3.6954,128.1814,32.08,62,40,3.6,ID,1675661732
144,zhigansk,66.7697,123.3711,-39.22,95,98,2.19,RU,1675661732
145,souillac,-20.5167,57.5167,29.21,70,40,3.6,MU,1675661733
146,tuatapere,-46.1333,167.6833,19.03,54,88,3.92,NZ,1675661733
147,roma,43.2128,-75.4557,5.4,76,100,2.06,US,1675661734
148,chaman,30.9236,66.4512,11.43,39,0,3.2,PK,1675661734
149,bowen,-20.0167,148.2333,29.59,73,30,7.3,AU,1675661666
150,kalabo,-14.97,22.6814,19.52,95,100,3.24,ZM,1675661734
151,novo aripuana,-5.1206,-60.3797,22.23,99,100,0.47,BR,1675661735
152,sinnamary,5.3833,-52.95,24.43,87,100,5.39,GF,1675661735
153,severnoye,56.3491,78.3619,-12.33,93,100,2.63,RU,1675661735
154,saint-georges,12.0564,-61.7485,25.82,83,75,6.17,GD,1675661573
155,cidreira,-30.1811,-50.2056,20.66,89,95,2.43,BR,1675661736
156,boguchany,58.3814,97.4531,-9.47,90,100,3.02,RU,1675661736
157,mar del plata,-38.0023,-57.5575,23.26,73,0,3.6,AR,1675661736
158,vostok,46.4856,135.8833,-13.4,77,84,3.64,RU,1675661737
159,carnarvon,-24.8667,113.6333,28.73,59,0,8.57,AU,1675661737
160,khasan,42.4308,130.6434,-0.68,49,23,4.48,RU,1675661737
161,severo-kurilsk,50.6789,156.125,-2.91,64,100,9.21,RU,1675661737
162,bow island,49.8668,-111.3684,4.1,70,57,8.75,CA,1675661738
163,westport,41.1415,-73.3579,6.02,83,100,2.33,US,1675661738
164,sao filipe,14.8961,-24.4956,19.94,64,63,8.65,CV,1675661738
165,baruun-urt,46.6806,113.2792,-10.88,73,20,2.62,MN,1675661739
166,gari,59.4307,62.3497,-9.45,93,100,1.41,RU,1675661739
167,sitka,57.0531,-135.33,5.94,70,100,11.83,US,1675661579
168,nanortalik,60.1432,-45.2371,-8.47,71,100,11.34,GL,1675661739
169,culiacan,24.7994,-107.3897,15.82,82,0,0.0,MX,1675661554
170,inirida,3.8653,-67.9239,22.15,99,86,1.07,CO,1675661740
171,ilulissat,69.2167,-51.1,-17.99,78,100,6.17,GL,1675661740
172,san policarpo,12.1791,125.5072,27.06,84,47,4.96,PH,1675661740
173,poronaysk,49.2167,143.1167,-14.32,86,44,0.88,RU,1675661741
174,chumikan,54.7183,135.315,-18.42,82,30,6.92,RU,1675661741
175,mahebourg,-20.4081,57.7,29.16,70,40,3.6,MU,1675661741
176,druzhba,52.0428,33.9453,-8.17,97,72,2.81,UA,1675661742
177,charagua,-19.8,-63.2167,19.36,70,60,1.82,BO,1675661743
178,cap malheureux,-19.9842,57.6142,29.15,72,91,4.02,MU,1675661744
179,puerto del rosario,28.5004,-13.8627,14.86,77,75,2.57,ES,1675661746
180,taoudenni,22.6783,-3.9836,13.72,32,88,3.89,ML,1675661746
181,itaituba,-4.2761,-55.9836,22.08,99,96,0.35,BR,1675661747
182,ucluelet,48.9329,-125.5528,7.83,87,99,1.34,CA,1675661748
183,cacapava do sul,-30.5122,-53.4914,16.0,89,4,0.73,BR,1675661750
184,sena madureira,-9.0656,-68.6569,21.97,100,94,0.85,BR,1675661750
185,araouane,18.9048,-3.5265,15.05,21,18,3.74,ML,1675661751
186,at-bashi,41.1702,75.8106,-5.9,76,100,1.11,KG,1675661752
187,ugoofaaru,5.6667,73.0,27.09,75,93,2.71,MV,1675661753
188,komsomolskiy,40.4272,71.7189,5.4,87,100,2.06,UZ,1675661754
189,chicama,-7.8447,-79.1469,21.3,76,48,1.72,PE,1675661755
190,maku,39.2911,44.4521,-0.66,86,75,0.0,IR,1675661755
191,punalur,9.0,76.9333,32.21,27,62,2.48,IN,1675661755
192,neepawa,50.2289,-99.4664,-11.78,95,61,3.28,CA,1675661755
193,kushiro,42.975,144.3747,2.53,35,20,5.66,JP,1675661756
194,olinda,-8.0089,-34.8553,23.85,94,75,2.06,BR,1675661756
195,vokhtoga,58.8147,41.0461,-20.03,100,100,0.42,RU,1675661756
196,hualmay,-11.0964,-77.6139,21.97,85,70,2.79,PE,1675661760
197,balkhash,46.844,74.9804,-4.66,93,100,3.0,KZ,1675661760
198,black river,18.0264,-77.8487,22.54,83,1,0.86,JM,1675661760
199,geraldton,-28.7667,114.6,27.23,54,40,7.2,AU,1675661760
200,mareeba,-17.0,145.4333,30.8,75,100,2.78,AU,1675661761
201,honningsvag,70.9821,25.9704,2.86,81,100,6.69,NO,1675661761
202,luanda,-8.8368,13.2343,25.08,83,94,2.33,AO,1675661543
203,ulaanbaatar,47.9077,106.8832,-14.93,66,40,1.0,MN,1675661497
204,yulara,-25.2406,130.9889,33.78,8,0,4.55,AU,1675661762
205,sesheke,-17.4759,24.2968,20.52,93,100,2.44,ZM,1675661762
206,novopokrovka,49.8425,36.5477,-5.89,90,90,3.4,UA,1675661763
207,santa maria,-29.6842,-53.8069,19.33,68,67,1.11,BR,1675661763
208,ostrovnoy,68.0531,39.5131,-8.95,85,100,8.78,RU,1675661764
209,tieli,46.95,128.05,-11.0,80,92,2.95,CN,1675661764
210,lodja,-3.4833,23.4333,22.5,77,100,1.68,CD,1675661765
211,leh,34.1667,77.5833,-8.15,62,88,1.19,IN,1675661766
212,varlamovo,53.1897,48.4226,-12.2,96,99,1.34,RU,1675661767
213,babstovo,48.1167,132.4833,-14.07,80,7,2.01,RU,1675661768
214,tucuma,-0.1833,-50.05,23.34,95,100,2.42,BR,1675661768
215,colombia,20.9881,-77.4297,22.17,83,0,2.22,CU,1675661769
216,hailar,49.2,119.7,-16.58,90,85,3.35,CN,1675661770
217,oshawa,43.9001,-78.8496,3.84,81,100,2.68,CA,1675661612
218,cockburn town,21.4612,-71.1419,25.52,78,1,9.07,TC,1675661770
219,ust-koksa,50.2696,85.6108,-5.25,89,100,0.28,RU,1675661771
220,mount isa,-20.7333,139.5,31.87,58,40,3.6,AU,1675661771
221,yichang,30.7144,111.2847,14.99,44,67,1.95,CN,1675661772
222,okato,-39.2,173.8833,19.27,74,2,4.99,NZ,1675661773
223,tautira,-17.7333,-149.15,27.19,80,99,6.46,PF,1675661774
224,roald,62.5833,6.1333,7.84,65,75,7.2,NO,1675661774
225,marsabit,2.3284,37.9899,21.08,41,3,6.41,KE,1675661776
226,kaitangata,-46.2817,169.8464,18.91,58,60,4.55,NZ,1675661777
227,anadyr,64.75,177.4833,-29.72,74,75,5.0,RU,1675661777
228,mirnyy,62.5353,113.9611,-30.97,92,78,0.93,RU,1675661778
229,taonan,45.3333,122.7833,-4.92,48,18,3.24,CN,1675661778
230,opuwo,-18.0607,13.84,19.62,47,96,0.79,NA,1675661778
231,georgetown,5.4112,100.3354,24.97,94,40,4.63,MY,1675661683
232,carlisle,40.2015,-77.1889,4.39,64,100,2.08,US,1675661779
233,hajos,46.3986,19.1206,-3.49,65,3,2.98,HU,1675661779
234,chuy,-33.6971,-53.4616,17.38,89,0,2.21,UY,1675661780
235,alora,36.8236,-4.7058,7.49,85,0,0.67,ES,1675661780
236,zunyi,27.6867,106.9072,10.38,74,100,1.18,CN,1675661580
237,puerto madero,14.7208,-92.4215,24.11,100,0,0.0,MX,1675661782
238,kosh-agach,50.0,88.6667,-16.97,94,100,0.47,RU,1675661783
239,sehithwa,-20.4667,22.7167,22.45,80,87,1.33,BW,1675661783
240,seoul,37.5683,126.9778,7.78,50,75,2.57,KR,1675661764
241,carlyle,38.6103,-89.3726,5.53,70,11,2.57,US,1675661784
242,monteagudo,-19.8167,-63.9833,15.77,84,67,1.22,BO,1675661785
243,faanui,-16.4833,-151.75,27.61,72,10,6.11,PF,1675661786
244,mbini,1.574,9.6134,23.91,85,86,1.8,GQ,1675661786
245,arrifes,37.7667,-25.7,14.14,77,40,4.12,PT,1675661787
246,natal,-5.795,-35.2094,24.36,88,20,2.06,BR,1675661662
247,beringovskiy,63.05,179.3167,-29.16,96,96,4.68,RU,1675661788
248,coihaique,-45.5752,-72.0662,12.34,58,0,1.54,CL,1675661789
249,mwene-ditu,-7.0,23.45,18.94,89,91,1.35,CD,1675661790
250,hamilton,39.1834,-84.5333,5.69,74,0,4.63,US,1675661648
251,provideniya,64.3833,-173.3,-13.94,72,100,6.0,RU,1675661790
252,tura,25.5198,90.2201,24.49,30,0,2.51,IN,1675661791
253,kavieng,-2.5744,150.7967,28.55,73,85,3.31,PG,1675661791
254,vila velha,-20.3297,-40.2925,25.97,88,0,2.24,BR,1675661791
255,cam ranh,11.9214,109.1591,28.98,61,20,4.63,VN,1675661792
256,blackfoot,43.1905,-112.345,1.54,85,81,8.54,US,1675661630
257,benton harbor,42.1167,-86.4542,1.14,76,100,3.09,US,1675661793
258,vilyuysk,63.7553,121.6247,-36.25,95,83,1.89,RU,1675661794
259,luau,-10.7073,22.2247,18.22,92,100,1.25,AO,1675661794
260,pasighat,28.0667,95.3333,25.12,30,16,2.12,IN,1675661794
261,shubarkuduk,49.1447,56.4872,-14.05,92,12,3.49,KZ,1675661795
262,ennis,52.8436,-8.9864,6.96,93,75,4.63,IE,1675661795
263,goderich,43.7501,-81.7165,0.51,93,100,7.2,CA,1675661795
264,aksarka,66.5606,67.7975,-25.66,100,29,0.85,RU,1675661796
265,puerto escondido,15.85,-97.0667,24.17,69,0,2.49,MX,1675661591
266,lima,-12.0432,-77.0282,23.83,80,0,6.17,PE,1675661576
267,pacific grove,36.6177,-121.9166,10.61,84,75,4.63,US,1675661658
268,moyale,3.5167,39.0584,25.45,22,25,6.55,KE,1675661798
269,chokurdakh,70.6333,147.9167,-33.44,98,95,1.65,RU,1675661798
270,iqaluit,63.7506,-68.5145,-27.95,68,100,7.72,CA,1675661799
271,beira,-19.8436,34.8389,28.05,69,40,2.06,MZ,1675661799
272,aviles,43.5547,-5.9248,7.74,76,0,3.09,ES,1675661799
273,port hardy,50.6996,-127.4199,5.1,100,100,2.06,CA,1675661800
274,bud,39.447,-86.1758,3.51,83,5,2.85,US,1675661800
275,sosva,59.1766,61.8558,-9.47,94,100,1.14,RU,1675661800
276,clyde river,70.4692,-68.5914,-31.87,68,0,2.57,CA,1675661801
277,hofn,64.2539,-15.2082,4.46,81,100,12.67,IS,1675661801
278,ribeira grande,38.5167,-28.7,15.99,95,100,7.15,PT,1675661801
279,lafia,8.4833,8.5167,24.63,32,100,0.73,NG,1675661801
280,poum,-20.2333,164.0167,28.77,79,97,6.99,NC,1675661802
281,sistranda,63.7256,8.834,3.98,78,98,8.19,NO,1675661802
282,vestmannaeyjar,63.4427,-20.2734,4.93,68,100,14.75,IS,1675661803
283,necochea,-38.5473,-58.7368,20.2,81,69,3.62,AR,1675661804
284,amalapuram,16.5833,82.0167,30.72,39,35,1.83,IN,1675661805
285,dumas,35.8656,-101.9732,2.08,51,0,4.63,US,1675661805
286,hami,42.8,93.45,3.84,29,5,0.54,CN,1675661806
287,ponta do sol,32.6667,-17.1,16.35,55,4,2.88,PT,1675661806
288,eberbach,49.4694,8.9928,3.1,98,100,0.93,DE,1675661807
289,sabha,27.0377,14.4283,7.44,74,2,3.83,LY,1675661808
290,srandakan,-7.9386,110.2506,28.01,73,99,3.59,ID,1675661808
291,sikasso,10.9167,-7.0,22.75,19,85,2.67,ML,1675661808
292,kruisfontein,-34.0033,24.7314,22.16,89,97,2.61,ZA,1675661809
293,boa vista,2.8197,-60.6733,23.99,83,40,4.63,BR,1675661809
294,vung tau,10.346,107.0843,27.62,68,35,6.94,VN,1675661809
295,gat,31.61,34.7642,12.44,25,24,11.41,IL,1675661810
296,talcahuano,-36.7167,-73.1167,12.82,94,2,1.03,CL,1675661810
297,lata,40.1629,-8.3327,4.49,78,0,2.21,PT,1675661811
298,dapaong,10.8639,0.205,24.16,15,100,2.53,TG,1675661811
299,asfi,32.2994,-9.2372,12.12,63,0,1.15,MA,1675661812
300,swan hill,-35.3378,143.5544,30.5,19,25,4.36,AU,1675661812
301,navalmoral de la mata,39.8916,-5.5406,9.42,54,4,0.25,ES,1675661812
302,mango,27.9797,-82.3065,20.57,80,75,0.45,US,1675661813
303,talnakh,69.4865,88.3972,-19.33,98,100,0.71,RU,1675661813
304,mitsamiouli,-11.3847,43.2844,27.83,75,100,4.09,KM,1675661813
305,lazurne,46.084,32.5295,-0.99,78,63,10.38,UA,1675661814
306,zuenoula,7.4292,-6.0431,22.69,87,99,1.72,CI,1675661814
307,malangali,-8.5667,34.85,20.13,82,100,0.31,TZ,1675661814
308,baghdad,33.3406,44.4009,11.95,71,40,5.66,IQ,1675661739
309,kimbe,-5.5502,150.1429,29.12,73,96,2.1,PG,1675661815
310,praia da vitoria,38.7333,-27.0667,16.14,88,75,6.18,PT,1675661815
311,bilibino,68.0546,166.4372,-36.4,100,100,0.58,RU,1675661815
312,bure,10.7,37.0667,20.19,26,69,1.44,ET,1675661815
313,dzilam gonzalez,21.2833,-88.9333,20.4,82,12,2.07,MX,1675661816
314,nioaque,-21.1353,-55.83,21.16,80,44,1.02,BR,1675661816
315,hun,29.1268,15.9477,11.4,62,77,3.16,LY,1675661816
316,sao gabriel da cachoeira,-0.1303,-67.0892,21.95,100,100,0.67,BR,1675661817
317,san quintin,30.4833,-115.95,13.31,83,43,9.95,MX,1675661817
318,piacabucu,-10.4056,-36.4344,24.9,86,20,2.84,BR,1675661817
319,pangnirtung,66.1451,-65.7125,-37.57,91,98,2.22,CA,1675661818
320,chazuta,-6.5742,-76.1367,23.76,84,88,0.81,PE,1675661818
321,daryapur,20.9333,77.3333,28.45,17,19,0.96,IN,1675661819
322,luderitz,-26.6481,15.1594,17.5,85,89,0.44,NA,1675661820
323,artesia,33.8658,-118.0831,14.14,78,0,2.06,US,1675661820
324,killarney,52.05,-9.5167,7.78,97,98,2.77,IE,1675661674
325,dingle,10.9995,122.6711,28.86,70,70,5.0,PH,1675661820
326,okahandja,-21.9833,16.9167,19.56,82,100,1.54,NA,1675661821
327,koumac,-20.5667,164.2833,30.17,70,98,1.15,NC,1675661821
328,saint-pierre,-21.3393,55.4781,29.82,66,0,2.57,RE,1675661821
329,gbadolite,4.2833,21.0167,24.03,28,22,1.04,CD,1675661822
330,berlevag,70.8578,29.0864,2.0,75,40,7.72,NO,1675661822
331,north myrtle beach,33.816,-78.68,9.5,98,100,3.09,US,1675661823
332,taltal,-25.4,-70.4833,20.32,86,19,1.63,CL,1675661823
333,manta,-0.95,-80.7333,25.88,78,40,2.06,EC,1675661825
334,sept-iles,50.2001,-66.3821,-15.0,69,100,3.6,CA,1675661705
335,gimli,50.6336,-96.9907,-6.99,86,74,8.75,CA,1675661826
336,nome,64.5011,-165.4064,-11.96,72,0,3.09,US,1675661827
337,nueva loja,0.0847,-76.8828,21.78,93,100,0.45,EC,1675661828
338,jumla,29.2747,82.1838,12.73,21,0,2.85,NP,1675661829
339,benguela,-12.5763,13.4055,25.51,72,100,1.28,AO,1675661831
340,zyryanka,65.75,150.85,-33.63,100,100,0.26,RU,1675661832
341,sao miguel do araguaia,-13.275,-50.1628,22.51,89,99,0.74,BR,1675661832
342,nassau,40.7507,-73.5829,7.03,84,0,2.57,US,1675661547
343,yashkino,55.8736,85.4265,-10.82,86,79,2.01,RU,1675661833
344,aksu,41.1231,80.2644,0.17,57,100,1.78,CN,1675661833
345,hammerfest,70.6634,23.6821,2.25,93,75,8.75,NO,1675661834
346,atasu,48.6814,71.6433,-4.74,96,98,3.45,KZ,1675661834
347,arman,59.7,150.1667,-22.19,83,94,3.21,RU,1675661835
348,asau,46.4333,26.4,-3.49,93,98,3.67,RO,1675661835
349,te anau,-45.4167,167.7167,18.14,51,94,2.93,NZ,1675661836
350,guerrero,17.6667,-100.0,17.21,75,0,2.35,MX,1675661836
351,mackay,-21.15,149.2,28.65,78,73,5.61,AU,1675661837
352,hall,34.3168,-83.7832,9.44,79,0,2.06,US,1675661837
353,letterkenny,54.95,-7.7333,3.82,93,94,2.72,IE,1675661838
354,mount gambier,-37.8333,140.7667,20.05,52,6,4.04,AU,1675661839
355,caravelas,-17.7125,-39.2481,24.78,87,0,4.19,BR,1675661839
356,wete,-5.0559,39.7294,27.62,67,78,3.91,TZ,1675661840
357,kitui,-1.367,38.0106,22.06,58,4,0.35,KE,1675661840
358,san cristobal,7.7669,-72.225,21.1,85,26,1.27,VE,1675661841
359,vagamo,61.8751,9.0967,-6.02,91,99,1.14,NO,1675661841
360,ixtapa,20.7,-105.2,21.79,94,0,1.03,MX,1675661841
361,cumra,37.5732,32.7745,-1.92,96,100,8.04,TR,1675661842
362,portland,45.5234,-122.6762,8.23,86,75,4.63,US,1675661842
363,brae,60.3964,-1.353,8.37,88,100,11.22,GB,1675661843
364,coquimbo,-29.9533,-71.3436,19.85,72,0,2.57,CL,1675661843
365,kulhudhuffushi,6.6221,73.07,27.03,73,79,1.88,MV,1675661843
366,kodiak,57.79,-152.4072,0.73,86,100,6.69,US,1675661682
367,grand gaube,-20.0064,57.6608,29.22,72,90,4.02,MU,1675661844
368,januaria,-15.4833,-44.3667,21.33,83,1,1.23,BR,1675661845
369,dongsheng,39.8161,109.9776,0.52,25,31,3.21,CN,1675661846
370,katsuura,35.1333,140.3,11.7,43,88,1.56,JP,1675661847
371,qaqortoq,60.7167,-46.0333,-12.17,87,79,6.57,GL,1675661848
372,inuvik,68.3499,-133.7218,-37.44,67,0,0.0,CA,1675661850
373,biltine,14.5333,20.9167,21.21,14,92,3.66,TD,1675661850
374,sokolo,14.7328,-6.1219,19.92,17,29,4.46,ML,1675661850
375,ludvika,60.1496,15.1878,-5.93,92,45,1.34,SE,1675661851
376,kabala,9.5833,-11.55,20.68,66,99,1.21,SL,1675661851
377,iquitos,-3.7481,-73.2472,22.02,100,0,0.0,PE,1675661717
378,thohoyandou,-22.9456,30.485,22.59,65,0,1.14,ZA,1675661851
379,kaeo,-35.1,173.7833,20.74,93,95,2.1,NZ,1675661852
380,kloulklubed,7.0419,134.2556,29.28,76,97,9.02,PW,1675661852
381,yerbogachen,61.2767,108.0108,-21.65,95,100,1.56,RU,1675661853
382,pevek,69.7008,170.3133,-38.27,100,96,1.35,RU,1675661854
383,greeley,40.4233,-104.7091,7.74,92,0,4.12,US,1675661723
384,surt,31.2089,16.5887,13.43,53,90,7.83,LY,1675661854
385,eureka,40.8021,-124.1637,8.34,94,62,0.89,US,1675661837
386,phalaborwa,-23.943,31.1411,23.6,65,2,2.56,ZA,1675661855
387,kismayo,-0.3582,42.5454,26.78,71,39,7.95,SO,1675661855
388,sungaipenuh,-2.0833,101.3833,27.11,41,92,3.11,ID,1675661855
389,kananga,-5.8958,22.4178,20.61,85,81,1.42,CD,1675661856
390,aldan,58.6031,125.3894,-31.85,87,100,1.84,RU,1675661856
391,morshansk,53.4435,41.8107,-11.03,94,97,1.82,RU,1675661857
392,camana,-16.6228,-72.7111,24.13,84,100,1.56,PE,1675661858
393,port-gentil,-0.7193,8.7815,26.98,83,40,3.6,GA,1675661858
394,hay river,60.8156,-115.7999,-21.01,77,100,6.17,CA,1675661858
395,olivenza,38.6832,-7.103,4.3,76,1,1.9,ES,1675661858
396,maceio,-9.6658,-35.7353,24.69,94,20,1.03,BR,1675661859
397,inhambane,-23.865,35.3833,25.2,75,54,3.02,MZ,1675661859
398,maruoka,36.1534,136.2703,9.94,64,83,1.92,JP,1675661859
399,mabiton,12.8334,123.2612,27.16,78,30,4.13,PH,1675661860
400,prince rupert,54.3161,-130.3201,4.83,91,100,20.58,CA,1675661702
401,nybro,56.7446,15.9071,-1.64,93,22,1.57,SE,1675661860
402,ekhabi,53.5102,142.9671,-18.34,93,99,5.04,RU,1675661860
403,akyab,20.15,92.9,24.95,37,6,3.5,MM,1675661861
404,yarim,14.298,44.3779,13.99,28,68,1.59,YE,1675661861
405,araguaina,-7.1911,-48.2072,22.16,93,94,1.5,BR,1675661862
406,namibe,-15.1961,12.1522,21.27,82,97,2.02,AO,1675661862
407,marzuq,14.4,46.4667,22.68,42,26,0.5,YE,1675661862
408,reforma,18.1,-91.0167,20.29,96,71,2.51,MX,1675661863
409,yatou,37.15,122.3833,8.07,55,50,1.38,CN,1675661863
410,shelburne,44.0787,-80.2041,-0.75,92,100,3.94,CA,1675661782
411,mehamn,71.0357,27.8492,1.97,80,20,6.17,NO,1675661863
412,saldanha,-33.0117,17.9442,18.03,81,0,1.78,ZA,1675661864
413,atambua,-9.1061,124.8925,27.01,70,83,2.48,ID,1675661864
414,nizhniy tsasuchey,50.5167,115.1333,-9.39,66,9,5.31,RU,1675661865
415,obidos,-1.9175,-55.5181,22.23,97,39,1.25,BR,1675661865
416,tenenkou,14.4572,-4.9169,19.71,17,24,4.64,ML,1675661866
417,la ronge,55.1001,-105.2842,-0.86,80,75,2.06,CA,1675661866
418,bandar,2.05,99.75,27.04,78,100,1.44,ID,1675661867
419,naze,28.3667,129.4833,17.51,95,100,10.11,JP,1675661867
420,bathsheba,13.2167,-59.5167,24.34,83,75,9.26,BB,1675661868
421,okhotsk,59.3833,143.3,-22.07,83,99,4.26,RU,1675661868
422,tarancon,40.0085,-3.0073,2.66,51,11,2.57,ES,1675661868
423,calvinia,-31.4707,19.776,21.03,63,44,2.52,ZA,1675661869
424,lasa,46.6166,10.7002,0.49,89,51,2.67,IT,1675661869
425,montero,-17.3333,-63.25,23.5,91,67,1.92,BO,1675661869
426,lagoa,39.05,-27.9833,15.27,94,100,7.44,PT,1675661870
427,husavik,66.0449,-17.3389,1.84,64,91,8.11,IS,1675661870
428,kenitra,34.261,-6.5802,4.42,78,0,1.65,MA,1675661817
429,atascadero,35.4894,-120.6707,8.03,85,19,0.89,US,1675661871
430,polyarnyy,69.1989,33.4478,0.15,92,100,11.08,RU,1675661871
431,guane,22.2025,-84.0875,20.46,91,9,1.31,CU,1675661871
432,lahat,-3.8,103.5333,33.9,39,98,2.72,ID,1675661871
433,guerrero negro,27.9769,-114.0611,14.97,88,86,7.12,MX,1675661872
434,adiake,5.2863,-3.304,25.57,92,98,2.79,CI,1675661872
435,badami,15.915,75.6768,29.29,30,27,2.67,IN,1675661702
436,saint-joseph,-21.3667,55.6167,29.21,73,52,4.67,RE,1675661872
437,karasburg,-28.0167,18.75,23.18,39,98,1.46,NA,1675661873
438,yining,29.0361,114.5636,9.94,93,100,0.61,CN,1675661873
439,fortuna,40.5982,-124.1573,8.19,95,75,4.12,US,1675661874
440,mana,5.6592,-53.7767,24.16,88,100,5.08,GF,1675661874
441,erenhot,43.6475,111.9767,-4.34,30,54,2.24,CN,1675661874
442,pozo colorado,-23.4923,-58.7972,22.49,59,76,1.87,PY,1675661875
443,hastings,50.8552,0.5729,4.95,87,52,3.63,GB,1675661666
444,fomboni,-12.28,43.7425,27.81,73,96,2.21,KM,1675661875
445,plattsburgh,44.6995,-73.4529,4.42,64,100,1.54,US,1675661876
446,dawei,14.0833,98.2,31.42,53,7,3.76,MM,1675661876
447,santo antonio do sudoeste,-26.0736,-53.7253,17.24,64,94,1.04,BR,1675661876
448,zverinogolovskoye,54.4586,64.8542,-13.15,94,95,2.63,RU,1675661877
449,qeshm,26.9581,56.2719,19.93,70,1,3.11,IR,1675661877
450,mayumba,-3.432,10.6554,25.1,89,98,3.25,GA,1675661877
451,haapiti,-17.5667,-149.8667,27.85,77,97,6.0,PF,1675661878
452,oksfjord,70.2396,22.3479,3.1,92,99,4.5,NO,1675661878
453,duvan,55.695,57.9024,-14.35,97,100,0.75,RU,1675661878
454,carutapera,-1.195,-46.02,23.59,95,100,2.26,BR,1675661879
455,inverell,-29.7833,151.1167,32.31,18,84,0.45,AU,1675661879
456,pecos,31.4229,-103.4932,16.28,39,0,2.06,US,1675661768
457,concordia,-31.393,-58.0209,17.66,70,0,0.89,AR,1675661879
458,contamana,-7.3333,-75.0167,22.51,94,96,0.25,PE,1675661880
459,itacare,-14.2775,-38.9967,23.63,88,20,1.13,BR,1675661880
460,maraba,-5.3686,-49.1178,23.1,100,0,1.03,BR,1675661880
461,somerset west,-34.084,18.8211,22.41,78,12,0.89,ZA,1675661881
462,kwinana,-32.25,115.7667,28.98,60,3,3.13,AU,1675661881
463,noshiro,40.2039,140.0242,5.46,71,99,3.91,JP,1675661882
464,ushtobe,45.2514,77.9838,0.33,92,100,1.07,KZ,1675661882
465,belgrade,44.804,20.4651,-5.19,86,0,5.14,RS,1675661730
466,hithadhoo,-0.6,73.0833,27.44,71,79,5.2,MV,1675661883
467,hambantota,6.1241,81.1185,30.19,79,40,4.63,LK,1675661884
468,harqalah,36.0303,10.509,7.92,76,0,2.06,TN,1675661884
469,copperas cove,31.1241,-97.9031,14.86,84,0,5.14,US,1675661885
470,gewane,10.1664,40.6453,26.3,35,40,2.97,ET,1675661885
471,ligayan,4.6533,119.4706,27.52,73,17,2.93,PH,1675661885
472,grindavik,63.8424,-22.4338,1.97,93,75,13.38,IS,1675661886
473,uvira,-3.4067,29.1458,23.45,75,99,2.18,CD,1675661886
474,verkhnyaya inta,65.9811,60.3094,-15.74,96,98,4.16,RU,1675661887
475,codrington,-38.2667,141.9667,18.74,59,34,4.85,AU,1675661888
476,neiafu,-18.65,-173.9833,28.38,83,75,3.6,TO,1675661888
477,harper,4.375,-7.7169,25.88,85,95,2.51,LR,1675661889
478,margate,51.3813,1.3862,5.39,91,54,0.89,GB,1675661889
479,sadon,42.8518,44.0037,-2.87,81,93,1.15,RU,1675661890
480,cabildo,-38.4842,-61.8954,22.66,57,19,2.95,AR,1675661890
481,faya,18.3851,42.4509,14.29,26,85,2.54,SA,1675661891
482,gbarnga,6.9956,-9.4722,21.49,99,99,0.66,LR,1675661891
483,arroyo,41.6096,-4.7969,3.95,81,0,9.77,ES,1675661892
484,coos bay,43.3665,-124.2179,8.99,66,100,2.06,US,1675661892
485,russell,32.3502,-85.1999,10.57,100,0,0.0,US,1675661893
486,leningradskiy,69.3833,178.4167,-30.25,98,100,2.38,RU,1675661893
487,tateyama,34.9833,139.8667,10.51,49,73,1.91,JP,1675661894
488,bukama,-9.2,25.85,20.65,94,95,0.49,CD,1675661894
489,oranjemund,-28.55,16.4333,17.66,94,98,2.47,NA,1675661895
490,sakhon nakhon,17.1612,104.1472,30.97,55,20,1.03,TH,1675661895
491,qasigiannguit,68.8193,-51.1922,-17.86,98,100,3.02,GL,1675661896
492,shakawe,-18.3667,21.85,21.22,84,92,1.19,BW,1675661897
493,acari,-15.4311,-74.6158,23.46,87,56,1.03,PE,1675661897
494,monywa,22.1167,95.1333,28.97,21,17,2.91,MM,1675661898
495,pochutla,15.7432,-96.4661,22.14,65,0,1.72,MX,1675661898
496,cavalcante,-13.7975,-47.4583,19.79,84,79,0.53,BR,1675661899
497,le pradet,43.1066,6.0172,9.83,68,100,9.26,FR,1675661899
498,hovd,48.0056,91.6419,-11.87,70,53,1.58,MN,1675661900
499,henties bay,-22.116,14.2845,17.59,88,100,1.99,NA,1675661900
500,otradnoye,59.7775,30.8181,-1.69,99,100,1.15,RU,1675661776
501,leshukonskoye,64.8989,45.7622,-21.87,100,99,2.33,RU,1675661901
502,windsor,42.3001,-83.0165,1.65,86,100,5.66,CA,1675661704
503,presidencia roque saenz pena,-26.7852,-60.4388,20.59,43,0,1.08,AR,1675661901
504,kamina,-8.7386,24.9906,18.5,91,91,1.42,CD,1675661902
505,kasongo-lunda,-6.4667,16.8167,21.13,89,99,0.16,CD,1675661902
506,taywarah,33.35,64.4167,-3.71,54,8,0.75,AF,1675661902
507,lubbecke,52.3,8.6167,0.66,93,70,3.58,DE,1675661903
508,porto belo,-27.1578,-48.5531,23.42,89,99,2.9,BR,1675661903
509,marsaxlokk,35.8419,14.5431,7.34,57,20,5.14,MT,1675661904
510,fonte boa,-2.4959,-66.2662,22.18,99,99,1.03,BR,1675661904
511,olden,61.8364,6.8064,6.73,91,100,4.18,NO,1675661905
512,hemel hempstead,51.7537,-0.4752,3.53,93,93,1.54,GB,1675661905
513,half moon bay,37.4636,-122.4286,10.19,86,100,10.29,US,1675661906
514,abha,18.2164,42.5053,14.14,26,0,4.12,SA,1675661907
515,kirakira,-10.4544,161.9205,26.22,88,100,9.6,SB,1675661907
516,kampot,10.6167,104.1833,30.03,53,31,2.7,KH,1675661908
517,selma,36.5708,-119.6121,7.88,100,0,2.06,US,1675661909
518,sao jose de ribamar,-2.5619,-44.0542,26.21,86,99,4.91,BR,1675661909
519,acapulco,16.8634,-99.8901,25.9,78,20,1.54,MX,1675661816
520,arroio grande,-32.2375,-53.0869,17.65,95,0,1.17,BR,1675661910
521,mumford,5.2618,-0.759,25.66,92,99,3.52,GH,1675661910
522,solnechnyy,50.7214,136.6319,-16.47,87,98,1.47,RU,1675661911
523,dalvik,65.9702,-18.5286,2.96,74,86,6.62,IS,1675661911
524,simoes,-7.5989,-40.8178,22.93,56,52,1.97,BR,1675661911
525,pemba,-12.974,40.5178,25.39,88,75,2.57,MZ,1675661912
526,poroina mare,44.4953,22.9364,-7.06,70,2,1.75,RO,1675661912
527,kichera,55.9375,110.0997,-12.9,93,100,2.59,RU,1675661912
528,kijang,35.2442,129.2139,11.85,26,100,1.01,KR,1675661913
529,bulawayo,-20.15,28.5833,21.24,54,5,2.76,ZW,1675661913
530,dargaville,-35.9333,173.8833,20.94,79,67,2.76,NZ,1675661913
531,south sioux city,42.4739,-96.4136,-1.23,84,0,4.63,US,1675661914
532,chivilcoy,-34.8957,-60.0167,19.69,39,54,3.17,AR,1675661735
533,yarega,63.4354,53.5765,-23.81,100,100,1.78,RU,1675661914
534,manavalakurichi,8.1333,77.3,30.12,41,47,0.6,IN,1675661914
535,shostka,51.863,33.4698,-8.12,96,72,3.05,UA,1675661915
536,chara,56.9064,118.2631,-21.77,93,100,1.59,RU,1675661915
537,ahipara,-35.1667,173.1667,21.21,78,44,3.69,NZ,1675661915
538,neyshabur,36.2133,58.7958,6.51,26,26,1.26,IR,1675661916
539,terney,45.0503,136.6092,-5.34,44,15,4.86,RU,1675661916
540,west wendover,40.7391,-114.0733,-1.44,80,0,2.06,US,1675661789
541,bondo,3.8146,23.6866,22.14,35,23,0.39,CD,1675661917
542,morro bay,35.3658,-120.8499,9.63,87,3,4.52,US,1675661917
543,sorland,67.667,12.6934,6.92,87,100,15.24,NO,1675661917
544,kavaratti,10.5669,72.642,27.2,69,38,1.72,IN,1675661918
545,lompoc,34.6391,-120.4579,10.43,77,40,10.29,US,1675661918
546,newport,51.5877,-2.9984,2.25,87,9,0.63,GB,1675661919
547,bolu,40.6667,31.5833,-1.67,93,100,2.92,TR,1675661919
548,tocopilla,-22.092,-70.1979,22.29,85,5,1.55,CL,1675661919
549,mogadishu,2.0371,45.3438,25.93,78,20,6.69,SO,1675661920
550,kahului,20.8947,-156.47,23.32,73,40,4.63,US,1675661920
551,severnyy,50.677,36.5532,-2.98,93,100,3.0,RU,1675661920
552,winchester,51.0651,-1.3187,2.6,94,100,1.54,GB,1675661921
553,raudeberg,61.9875,5.1352,7.2,73,100,9.96,NO,1675661921
554,luoyang,34.6836,112.4536,13.29,32,56,2.96,CN,1675661921
555,micheweni,-4.9667,39.8333,27.46,70,79,4.37,TZ,1675661922
556,chapais,49.7834,-74.8492,-19.12,100,87,1.68,CA,1675661922
557,rodrigues alves,-7.738,-72.6509,21.4,99,96,0.65,BR,1675661923
558,bria,6.5423,21.9863,22.23,20,55,1.42,CF,1675661923
559,waitati,-45.75,170.5667,19.33,66,69,4.17,NZ,1675661923
560,anaconda,46.1285,-112.9423,-1.45,87,94,3.4,US,1675661924
561,miranda,3.2499,-76.2281,21.07,85,75,1.93,CO,1675661924
562,abalak,58.1286,68.5944,-11.94,94,99,0.76,RU,1675661924
563,port hedland,-20.3167,118.5667,35.03,55,0,9.77,AU,1675661925
564,vestmanna,62.1564,-7.1664,8.51,93,100,10.8,FO,1675661925
565,nuuk,64.1835,-51.7216,-13.06,83,100,4.58,GL,1675661925
566,azanka,58.0401,64.7893,-11.02,95,100,1.13,RU,1675661926
567,ambilobe,-13.2,49.05,27.54,76,68,1.2,MG,1675661926
568,makakilo city,21.3469,-158.0858,24.76,71,0,3.6,US,1675661926
569,varhaug,58.6147,5.6457,6.05,88,72,1.77,NO,1675661927
570,valdosta,30.8327,-83.2785,13.88,89,40,0.0,US,1675661712
571,tabalosos,-6.35,-76.6833,18.55,95,90,1.03,PE,1675661927
572,dunedin,-45.8742,170.5036,19.33,66,68,4.92,NZ,1675661927
573,high level,58.5169,-117.136,-15.94,100,20,2.57,CA,1675661928
574,bissau,11.8636,-15.5977,18.06,72,98,1.03,GW,1675661928
575,urucara,-2.5364,-57.76,22.25,97,100,0.7,BR,1675661929
576,sterling,39.0062,-77.4286,9.43,65,100,4.12,US,1675661782
577,marrakesh,31.6315,-8.0083,6.04,56,20,2.06,MA,1675661929
578,lebanon,36.2081,-86.2911,8.58,93,0,0.0,US,1675661789
579,panaba,21.2833,-88.2667,20.23,86,23,2.66,MX,1675661929
580,avera,33.194,-82.5271,7.73,91,0,2.87,US,1675661930
581,udachnyy,66.4167,112.4,-31.42,67,100,0.8,RU,1675661930
582,caraquet,47.7941,-64.9386,-10.7,96,100,0.22,CA,1675661931
583,praia,14.9215,-23.5087,20.3,60,75,10.8,CV,1675661931
584,mvomero,-6.25,38.6667,28.08,65,97,2.36,TZ,1675661931
585,new london,41.4834,-72.0662,5.98,89,0,0.0,US,1675661794
586,soyo,-6.1349,12.3689,25.14,86,50,2.04,AO,1675661932
587,manjacaze,-24.7117,33.8828,23.27,89,67,4.38,MZ,1675661932
588,omboue,-1.5746,9.2618,25.1,88,98,2.17,GA,1675661933
589,dengzhou,37.8086,120.7508,4.52,71,28,3.03,CN,1675661933
590,vallenar,-28.5708,-70.7581,22.38,56,0,1.43,CL,1675661933
591,muisne,0.6,-80.0333,25.04,89,84,2.18,EC,1675661934
592,vardo,70.3705,31.1107,2.99,70,20,7.72,NO,1675661934
